$GPGGA,073447.420,5232.552,N,01321.820,E,1,12,1.0,0.0,M,0.0,M,,*64
$GPGSA,A,3,01,02,03,04,05,06,07,08,09,10,11,12,1.0,1.0,1.0*30
$GPRMC,073447.420,A,5232.552,N,01321.820,E,3961.3,102.2,240418,000.0,W*44
$GPGGA,073448.420,5232.186,N,01323.525,E,1,12,1.0,0.0,M,0.0,M,,*6C
$GPGSA,A,3,01,02,03,04,05,06,07,08,09,10,11,12,1.0,1.0,1.0*30
$GPRMC,073448.420,A,5232.186,N,01323.525,E,1734.9,166.1,240418,000.0,W*4B
$GPGGA,073449.420,5231.710,N,01323.643,E,1,12,1.0,0.0,M,0.0,M,,*64
$GPGSA,A,3,01,02,03,04,05,06,07,08,09,10,11,12,1.0,1.0,1.0*30
$GPRMC,073449.420,A,5231.710,N,01323.643,E,1652.6,239.8,240418,000.0,W*4D
$GPGGA,073450.420,5231.393,N,01323.097,E,1,12,1.0,0.0,M,0.0,M,,*6C
$GPGSA,A,3,01,02,03,04,05,06,07,08,09,10,11,12,1.0,1.0,1.0*30
$GPRMC,073450.420,A,5231.393,N,01323.097,E,1092.7,210.7,240418,000.0,W*4A
$GPGGA,073451.420,5231.108,N,01322.927,E,1,12,1.0,0.0,M,0.0,M,,*6E
$GPGSA,A,3,01,02,03,04,05,06,07,08,09,10,11,12,1.0,1.0,1.0*30
$GPRMC,073451.420,A,5231.108,N,01322.927,E,855.8,121.0,240418,000.0,W*73
$GPGGA,073452.420,5230.942,N,01323.206,E,1,12,1.0,0.0,M,0.0,M,,*63
$GPGSA,A,3,01,02,03,04,05,06,07,08,09,10,11,12,1.0,1.0,1.0*30
$GPRMC,073452.420,A,5230.942,N,01323.206,E,1723.1,116.7,240418,000.0,W*4B
$GPGGA,073453.420,5230.638,N,01323.813,E,1,12,1.0,0.0,M,0.0,M,,*6E
$GPGSA,A,3,01,02,03,04,05,06,07,08,09,10,11,12,1.0,1.0,1.0*30
$GPRMC,073453.420,A,5230.638,N,01323.813,E,1862.2,098.7,240418,000.0,W*48
$GPGGA,073454.420,5230.513,N,01324.637,E,1,12,1.0,0.0,M,0.0,M,,*6C
$GPGSA,A,3,01,02,03,04,05,06,07,08,09,10,11,12,1.0,1.0,1.0*30
$GPRMC,073454.420,A,5230.513,N,01324.637,E,1086.2,095.3,240418,000.0,W*41
$GPGGA,073455.420,5230.468,N,01325.127,E,1,12,1.0,0.0,M,0.0,M,,*67
$GPGSA,A,3,01,02,03,04,05,06,07,08,09,10,11,12,1.0,1.0,1.0*30
$GPRMC,073455.420,A,5230.468,N,01325.127,E,1057.2,077.3,240418,000.0,W*4A
$GPGGA,073456.420,5230.569,N,01325.579,E,1,12,1.0,0.0,M,0.0,M,,*6B
$GPGSA,A,3,01,02,03,04,05,06,07,08,09,10,11,12,1.0,1.0,1.0*30
$GPRMC,073456.420,A,5230.569,N,01325.579,E,1116.0,038.3,240418,000.0,W*4B
$GPGGA,073457.420,5230.848,N,01325.801,E,1,12,1.0,0.0,M,0.0,M,,*66
$GPGSA,A,3,01,02,03,04,05,06,07,08,09,10,11,12,1.0,1.0,1.0*30
$GPRMC,073457.420,A,5230.848,N,01325.801,E,1004.8,038.6,240418,000.0,W*49
$GPGGA,073458.420,5231.099,N,01326.002,E,1,12,1.0,0.0,M,0.0,M,,*64
$GPGSA,A,3,01,02,03,04,05,06,07,08,09,10,11,12,1.0,1.0,1.0*30
$GPRMC,073458.420,A,5231.099,N,01326.002,E,1061.6,013.8,240418,000.0,W*41
$GPGGA,073459.420,5231.390,N,01326.074,E,1,12,1.0,0.0,M,0.0,M,,*6E
$GPGSA,A,3,01,02,03,04,05,06,07,08,09,10,11,12,1.0,1.0,1.0*30
$GPRMC,073459.420,A,5231.390,N,01326.074,E,713.9,331.4,240418,000.0,W*78
$GPGGA,073500.420,5231.578,N,01325.971,E,1,12,1.0,0.0,M,0.0,M,,*6C
$GPGSA,A,3,01,02,03,04,05,06,07,08,09,10,11,12,1.0,1.0,1.0*30
$GPRMC,073500.420,A,5231.578,N,01325.971,E,999.4,320.4,240418,000.0,W*7B
$GPGGA,073501.420,5231.826,N,01325.765,E,1,12,1.0,0.0,M,0.0,M,,*60
$GPGSA,A,3,01,02,03,04,05,06,07,08,09,10,11,12,1.0,1.0,1.0*30
$GPRMC,073501.420,A,5231.826,N,01325.765,E,1525.2,303.3,240418,000.0,W*4D
$GPGGA,073502.420,5232.136,N,01325.291,E,1,12,1.0,0.0,M,0.0,M,,*66
$GPGSA,A,3,01,02,03,04,05,06,07,08,09,10,11,12,1.0,1.0,1.0*30
$GPRMC,073502.420,A,5232.136,N,01325.291,E,1430.6,291.2,240418,000.0,W*41
$GPGGA,073503.420,5232.349,N,01324.740,E,1,12,1.0,0.0,M,0.0,M,,*65
$GPGSA,A,3,01,02,03,04,05,06,07,08,09,10,11,12,1.0,1.0,1.0*30
$GPRMC,073503.420,A,5232.349,N,01324.740,E,838.7,056.1,240418,000.0,W*7C
$GPGGA,073504.420,5232.521,N,01324.997,E,1,12,1.0,0.0,M,0.0,M,,*6E
$GPGSA,A,3,01,02,03,04,05,06,07,08,09,10,11,12,1.0,1.0,1.0*30
$GPRMC,073504.420,A,5232.521,N,01324.997,E,1127.4,081.4,240418,000.0,W*4D
$GPGGA,073505.420,5232.596,N,01325.497,E,1,12,1.0,0.0,M,0.0,M,,*6F
$GPGSA,A,3,01,02,03,04,05,06,07,08,09,10,11,12,1.0,1.0,1.0*30
$GPRMC,073505.420,A,5232.596,N,01325.497,E,1229.9,089.7,240418,000.0,W*47
$GPGGA,073506.420,5232.599,N,01326.058,E,1,12,1.0,0.0,M,0.0,M,,*67
$GPGSA,A,3,01,02,03,04,05,06,07,08,09,10,11,12,1.0,1.0,1.0*30
$GPRMC,073506.420,A,5232.599,N,01326.058,E,1420.2,108.6,240418,000.0,W*42
$GPGGA,073507.420,5232.409,N,01326.626,E,1,12,1.0,0.0,M,0.0,M,,*61
$GPGSA,A,3,01,02,03,04,05,06,07,08,09,10,11,12,1.0,1.0,1.0*30
$GPRMC,073507.420,A,5232.409,N,01326.626,E,1456.2,115.7,240418,000.0,W*48
$GPGGA,073508.420,5232.158,N,01327.148,E,1,12,1.0,0.0,M,0.0,M,,*61
$GPGSA,A,3,01,02,03,04,05,06,07,08,09,10,11,12,1.0,1.0,1.0*30
$GPRMC,073508.420,A,5232.158,N,01327.148,E,1973.2,157.2,240418,000.0,W*41
$GPGGA,073509.420,5231.628,N,01327.372,E,1,12,1.0,0.0,M,0.0,M,,*68
$GPGSA,A,3,01,02,03,04,05,06,07,08,09,10,11,12,1.0,1.0,1.0*30
$GPRMC,073509.420,A,5231.628,N,01327.372,E,2737.7,190.8,240418,000.0,W*41
$GPGGA,073510.420,5230.873,N,01327.227,E,1,12,1.0,0.0,M,0.0,M,,*60
$GPGSA,A,3,01,02,03,04,05,06,07,08,09,10,11,12,1.0,1.0,1.0*30
$GPRMC,073510.420,A,5230.873,N,01327.227,E,1434.5,217.5,240418,000.0,W*49
$GPGGA,073511.420,5230.513,N,01326.949,E,1,12,1.0,0.0,M,0.0,M,,*68
$GPGSA,A,3,01,02,03,04,05,06,07,08,09,10,11,12,1.0,1.0,1.0*30
$GPRMC,073511.420,A,5230.513,N,01326.949,E,7872.4,236.6,240418,000.0,W*48
$GPGGA,073512.420,5228.910,N,01324.508,E,1,12,1.0,0.0,M,0.0,M,,*66
$GPGSA,A,3,01,02,03,04,05,06,07,08,09,10,11,12,1.0,1.0,1.0*30
$GPRMC,073512.420,A,5228.910,N,01324.508,E,3559.0,262.5,240418,000.0,W*40
$GPGGA,073513.420,5228.703,N,01322.922,E,1,12,1.0,0.0,M,0.0,M,,*69
$GPGSA,A,3,01,02,03,04,05,06,07,08,09,10,11,12,1.0,1.0,1.0*30
$GPRMC,073513.420,A,5228.703,N,01322.922,E,4357.8,273.3,240418,000.0,W*4E
$GPGGA,073514.420,5228.816,N,01320.945,E,1,12,1.0,0.0,M,0.0,M,,*66
$GPGSA,A,3,01,02,03,04,05,06,07,08,09,10,11,12,1.0,1.0,1.0*30
$GPRMC,073514.420,A,5228.816,N,01320.945,E,2337.8,328.7,240418,000.0,W*4A
$GPGGA,073515.420,5229.425,N,01320.574,E,1,12,1.0,0.0,M,0.0,M,,*64
$GPGSA,A,3,01,02,03,04,05,06,07,08,09,10,11,12,1.0,1.0,1.0*30
$GPRMC,073515.420,A,5229.425,N,01320.574,E,2476.0,301.8,240418,000.0,W*46
$GPGGA,073516.420,5229.914,N,01319.781,E,1,12,1.0,0.0,M,0.0,M,,*6A
$GPGSA,A,3,01,02,03,04,05,06,07,08,09,10,11,12,1.0,1.0,1.0*30
$GPRMC,073516.420,A,5229.914,N,01319.781,E,2931.4,206.4,240418,000.0,W*48
$GPGGA,073517.420,5229.135,N,01319.392,E,1,12,1.0,0.0,M,0.0,M,,*66
$GPGSA,A,3,01,02,03,04,05,06,07,08,09,10,11,12,1.0,1.0,1.0*30
$GPRMC,073517.420,A,5229.135,N,01319.392,E,2925.3,194.5,240418,000.0,W*4F
$GPGGA,073518.420,5228.333,N,01319.183,E,1,12,1.0,0.0,M,0.0,M,,*6E
$GPGSA,A,3,01,02,03,04,05,06,07,08,09,10,11,12,1.0,1.0,1.0*30
$GPRMC,073518.420,A,5228.333,N,01319.183,E,2791.3,142.8,240418,000.0,W*40
$GPGGA,073519.420,5227.630,N,01319.719,E,1,12,1.0,0.0,M,0.0,M,,*63
$GPGSA,A,3,01,02,03,04,05,06,07,08,09,10,11,12,1.0,1.0,1.0*30
$GPRMC,073519.420,A,5227.630,N,01319.719,E,1816.7,104.4,240418,000.0,W*44
$GPGGA,073520.420,5227.436,N,01320.482,E,1,12,1.0,0.0,M,0.0,M,,*66
$GPGSA,A,3,01,02,03,04,05,06,07,08,09,10,11,12,1.0,1.0,1.0*30
$GPRMC,073520.420,A,5227.436,N,01320.482,E,2507.0,090.3,240418,000.0,W*43
$GPGGA,073521.420,5227.430,N,01321.624,E,1,12,1.0,0.0,M,0.0,M,,*6E
$GPGSA,A,3,01,02,03,04,05,06,07,08,09,10,11,12,1.0,1.0,1.0*30
$GPRMC,073521.420,A,5227.430,N,01321.624,E,5953.6,085.3,240418,000.0,W*43
$GPGGA,073522.420,5227.649,N,01324.313,E,1,12,1.0,0.0,M,0.0,M,,*65
$GPGSA,A,3,01,02,03,04,05,06,07,08,09,10,11,12,1.0,1.0,1.0*30
$GPRMC,073522.420,A,5227.649,N,01324.313,E,3582.6,082.6,240418,000.0,W*4C
$GPGGA,073523.420,5227.856,N,01325.909,E,1,12,1.0,0.0,M,0.0,M,,*64
$GPGSA,A,3,01,02,03,04,05,06,07,08,09,10,11,12,1.0,1.0,1.0*30
$GPRMC,073523.420,A,5227.856,N,01325.909,E,2481.6,061.4,240418,000.0,W*41
$GPGGA,073524.420,5228.314,N,01326.754,E,1,12,1.0,0.0,M,0.0,M,,*64
$GPGSA,A,3,01,02,03,04,05,06,07,08,09,10,11,12,1.0,1.0,1.0*30
$GPRMC,073524.420,A,5228.314,N,01326.754,E,2882.8,061.8,240418,000.0,W*4C
$GPGGA,073525.420,5228.841,N,01327.742,E,1,12,1.0,0.0,M,0.0,M,,*68
$GPGSA,A,3,01,02,03,04,05,06,07,08,09,10,11,12,1.0,1.0,1.0*30
$GPRMC,073525.420,A,5228.841,N,01327.742,E,2673.9,007.1,240418,000.0,W*48
$GPGGA,073526.420,5229.581,N,01327.835,E,1,12,1.0,0.0,M,0.0,M,,*64
$GPGSA,A,3,01,02,03,04,05,06,07,08,09,10,11,12,1.0,1.0,1.0*30
$GPRMC,073526.420,A,5229.581,N,01327.835,E,3954.4,052.5,240418,000.0,W*46
$GPGGA,073527.420,5230.440,N,01328.958,E,1,12,1.0,0.0,M,0.0,M,,*64
$GPGSA,A,3,01,02,03,04,05,06,07,08,09,10,11,12,1.0,1.0,1.0*30
$GPRMC,073527.420,A,5230.440,N,01328.958,E,2635.9,038.5,240418,000.0,W*4E
$GPGGA,073528.420,5231.099,N,01329.483,E,1,12,1.0,0.0,M,0.0,M,,*60
$GPGSA,A,3,01,02,03,04,05,06,07,08,09,10,11,12,1.0,1.0,1.0*30
$GPRMC,073528.420,A,5231.099,N,01329.483,E,1165.6,073.0,240418,000.0,W*4E
$GPGGA,073529.420,5231.244,N,01329.958,E,1,12,1.0,0.0,M,0.0,M,,*68
$GPGSA,A,3,01,02,03,04,05,06,07,08,09,10,11,12,1.0,1.0,1.0*30
$GPRMC,073529.420,A,5231.244,N,01329.958,E,4710.5,165.8,240418,000.0,W*4A
$GPGGA,073530.420,5229.951,N,01330.286,E,1,12,1.0,0.0,M,0.0,M,,*66
$GPGSA,A,3,01,02,03,04,05,06,07,08,09,10,11,12,1.0,1.0,1.0*30
$GPRMC,073530.420,A,5229.951,N,01330.286,E,2849.9,192.5,240418,000.0,W*48
$GPGGA,073531.420,5229.168,N,01330.111,E,1,12,1.0,0.0,M,0.0,M,,*68
$GPGSA,A,3,01,02,03,04,05,06,07,08,09,10,11,12,1.0,1.0,1.0*30
$GPRMC,073531.420,A,5229.168,N,01330.111,E,2182.1,212.4,240418,000.0,W*4A
$GPGGA,073532.420,5228.603,N,01329.751,E,1,12,1.0,0.0,M,0.0,M,,*6A
$GPGSA,A,3,01,02,03,04,05,06,07,08,09,10,11,12,1.0,1.0,1.0*30
$GPRMC,073532.420,A,5228.603,N,01329.751,E,1375.8,240.9,240418,000.0,W*42
$GPGGA,073533.420,5228.346,N,01329.287,E,1,12,1.0,0.0,M,0.0,M,,*61
$GPGSA,A,3,01,02,03,04,05,06,07,08,09,10,11,12,1.0,1.0,1.0*30
$GPRMC,073533.420,A,5228.346,N,01329.287,E,1856.5,233.4,240418,000.0,W*47
$GPGGA,073534.420,5227.948,N,01328.749,E,1,12,1.0,0.0,M,0.0,M,,*6B
$GPGSA,A,3,01,02,03,04,05,06,07,08,09,10,11,12,1.0,1.0,1.0*30
$GPRMC,073534.420,A,5227.948,N,01328.749,E,830.2,252.7,240418,000.0,W*7F
$GPGGA,073535.420,5227.844,N,01328.412,E,1,12,1.0,0.0,M,0.0,M,,*6A
$GPGSA,A,3,01,02,03,04,05,06,07,08,09,10,11,12,1.0,1.0,1.0*30
$GPRMC,073535.420,A,5227.844,N,01328.412,E,2169.5,247.9,240418,000.0,W*44
$GPGGA,073536.420,5227.511,N,01327.588,E,1,12,1.0,0.0,M,0.0,M,,*69
$GPGSA,A,3,01,02,03,04,05,06,07,08,09,10,11,12,1.0,1.0,1.0*30
$GPRMC,073536.420,A,5227.511,N,01327.588,E,038.9,235.3,240418,000.0,W*73
$GPGGA,073537.420,5227.503,N,01327.576,E,1,12,1.0,0.0,M,0.0,M,,*6A
$GPGSA,A,3,01,02,03,04,05,06,07,08,09,10,11,12,1.0,1.0,1.0*30
$GPRMC,073537.420,A,5227.503,N,01327.576,E,038.9,235.3,240418,000.0,W*70
$GPGGA,073538.420,5227.495,N,01327.564,E,1,12,1.0,0.0,M,0.0,M,,*68
$GPGSA,A,3,01,02,03,04,05,06,07,08,09,10,11,12,1.0,1.0,1.0*30
$GPRMC,073538.420,A,5227.495,N,01327.564,E,038.9,235.3,240418,000.0,W*72
$GPGGA,073539.420,5227.487,N,01327.553,E,1,12,1.0,0.0,M,0.0,M,,*6E
$GPGSA,A,3,01,02,03,04,05,06,07,08,09,10,11,12,1.0,1.0,1.0*30
$GPRMC,073539.420,A,5227.487,N,01327.553,E,038.9,235.3,240418,000.0,W*74
$GPGGA,073540.420,5227.479,N,01327.541,E,1,12,1.0,0.0,M,0.0,M,,*62
$GPGSA,A,3,01,02,03,04,05,06,07,08,09,10,11,12,1.0,1.0,1.0*30
$GPRMC,073540.420,A,5227.479,N,01327.541,E,038.9,235.3,240418,000.0,W*78
$GPGGA,073541.420,5227.471,N,01327.529,E,1,12,1.0,0.0,M,0.0,M,,*65
$GPGSA,A,3,01,02,03,04,05,06,07,08,09,10,11,12,1.0,1.0,1.0*30
$GPRMC,073541.420,A,5227.471,N,01327.529,E,038.9,235.3,240418,000.0,W*7F
$GPGGA,073542.420,5227.463,N,01327.517,E,1,12,1.0,0.0,M,0.0,M,,*68
$GPGSA,A,3,01,02,03,04,05,06,07,08,09,10,11,12,1.0,1.0,1.0*30
$GPRMC,073542.420,A,5227.463,N,01327.517,E,038.9,235.3,240418,000.0,W*72
$GPGGA,073543.420,5227.455,N,01327.506,E,1,12,1.0,0.0,M,0.0,M,,*6C
$GPGSA,A,3,01,02,03,04,05,06,07,08,09,10,11,12,1.0,1.0,1.0*30
$GPRMC,073543.420,A,5227.455,N,01327.506,E,038.9,235.3,240418,000.0,W*76
$GPGGA,073544.420,5227.447,N,01327.494,E,1,12,1.0,0.0,M,0.0,M,,*62
$GPGSA,A,3,01,02,03,04,05,06,07,08,09,10,11,12,1.0,1.0,1.0*30
$GPRMC,073544.420,A,5227.447,N,01327.494,E,038.9,235.3,240418,000.0,W*78
$GPGGA,073545.420,5227.438,N,01327.482,E,1,12,1.0,0.0,M,0.0,M,,*6C
$GPGSA,A,3,01,02,03,04,05,06,07,08,09,10,11,12,1.0,1.0,1.0*30
$GPRMC,073545.420,A,5227.438,N,01327.482,E,038.9,235.3,240418,000.0,W*76
$GPGGA,073546.420,5227.430,N,01327.470,E,1,12,1.0,0.0,M,0.0,M,,*6A
$GPGSA,A,3,01,02,03,04,05,06,07,08,09,10,11,12,1.0,1.0,1.0*30
$GPRMC,073546.420,A,5227.430,N,01327.470,E,038.9,235.3,240418,000.0,W*70
$GPGGA,073547.420,5227.422,N,01327.459,E,1,12,1.0,0.0,M,0.0,M,,*63
$GPGSA,A,3,01,02,03,04,05,06,07,08,09,10,11,12,1.0,1.0,1.0*30
$GPRMC,073547.420,A,5227.422,N,01327.459,E,038.9,235.3,240418,000.0,W*79
$GPGGA,073548.420,5227.414,N,01327.447,E,1,12,1.0,0.0,M,0.0,M,,*66
$GPGSA,A,3,01,02,03,04,05,06,07,08,09,10,11,12,1.0,1.0,1.0*30
$GPRMC,073548.420,A,5227.414,N,01327.447,E,038.9,235.3,240418,000.0,W*7C
$GPGGA,073549.420,5227.406,N,01327.435,E,1,12,1.0,0.0,M,0.0,M,,*61
$GPGSA,A,3,01,02,03,04,05,06,07,08,09,10,11,12,1.0,1.0,1.0*30
$GPRMC,073549.420,A,5227.406,N,01327.435,E,038.9,235.3,240418,000.0,W*7B
$GPGGA,073550.420,5227.398,N,01327.424,E,1,12,1.0,0.0,M,0.0,M,,*69
$GPGSA,A,3,01,02,03,04,05,06,07,08,09,10,11,12,1.0,1.0,1.0*30
$GPRMC,073550.420,A,5227.398,N,01327.424,E,038.9,235.3,240418,000.0,W*73
$GPGGA,073551.420,5227.390,N,01327.412,E,1,12,1.0,0.0,M,0.0,M,,*65
$GPGSA,A,3,01,02,03,04,05,06,07,08,09,10,11,12,1.0,1.0,1.0*30
$GPRMC,073551.420,A,5227.390,N,01327.412,E,038.9,235.3,240418,000.0,W*7F
$GPGGA,073552.420,5227.382,N,01327.400,E,1,12,1.0,0.0,M,0.0,M,,*66
$GPGSA,A,3,01,02,03,04,05,06,07,08,09,10,11,12,1.0,1.0,1.0*30
$GPRMC,073552.420,A,5227.382,N,01327.400,E,038.9,235.3,240418,000.0,W*7C
$GPGGA,073553.420,5227.374,N,01327.388,E,1,12,1.0,0.0,M,0.0,M,,*69
$GPGSA,A,3,01,02,03,04,05,06,07,08,09,10,11,12,1.0,1.0,1.0*30
$GPRMC,073553.420,A,5227.374,N,01327.388,E,038.9,235.3,240418,000.0,W*73
$GPGGA,073554.420,5227.366,N,01327.377,E,1,12,1.0,0.0,M,0.0,M,,*6D
$GPGSA,A,3,01,02,03,04,05,06,07,08,09,10,11,12,1.0,1.0,1.0*30
$GPRMC,073554.420,A,5227.366,N,01327.377,E,038.9,235.3,240418,000.0,W*77
$GPGGA,073555.420,5227.358,N,01327.365,E,1,12,1.0,0.0,M,0.0,M,,*62
$GPGSA,A,3,01,02,03,04,05,06,07,08,09,10,11,12,1.0,1.0,1.0*30
$GPRMC,073555.420,A,5227.358,N,01327.365,E,038.9,235.3,240418,000.0,W*78
$GPGGA,073556.420,5227.350,N,01327.353,E,1,12,1.0,0.0,M,0.0,M,,*6C
$GPGSA,A,3,01,02,03,04,05,06,07,08,09,10,11,12,1.0,1.0,1.0*30
$GPRMC,073556.420,A,5227.350,N,01327.353,E,038.9,235.3,240418,000.0,W*76
$GPGGA,073557.420,5227.342,N,01327.341,E,1,12,1.0,0.0,M,0.0,M,,*6D
$GPGSA,A,3,01,02,03,04,05,06,07,08,09,10,11,12,1.0,1.0,1.0*30
$GPRMC,073557.420,A,5227.342,N,01327.341,E,038.9,235.3,240418,000.0,W*77
$GPGGA,073558.420,5227.333,N,01327.330,E,1,12,1.0,0.0,M,0.0,M,,*62
$GPGSA,A,3,01,02,03,04,05,06,07,08,09,10,11,12,1.0,1.0,1.0*30
$GPRMC,073558.420,A,5227.333,N,01327.330,E,038.9,235.3,240418,000.0,W*78
$GPGGA,073559.420,5227.325,N,01327.318,E,1,12,1.0,0.0,M,0.0,M,,*6E
$GPGSA,A,3,01,02,03,04,05,06,07,08,09,10,11,12,1.0,1.0,1.0*30
$GPRMC,073559.420,A,5227.325,N,01327.318,E,038.9,235.3,240418,000.0,W*74
$GPGGA,073600.420,5227.317,N,01327.306,E,1,12,1.0,0.0,M,0.0,M,,*6F
$GPGSA,A,3,01,02,03,04,05,06,07,08,09,10,11,12,1.0,1.0,1.0*30
$GPRMC,073600.420,A,5227.317,N,01327.306,E,038.9,235.3,240418,000.0,W*75
$GPGGA,073601.420,5227.309,N,01327.295,E,1,12,1.0,0.0,M,0.0,M,,*6A
$GPGSA,A,3,01,02,03,04,05,06,07,08,09,10,11,12,1.0,1.0,1.0*30
$GPRMC,073601.420,A,5227.309,N,01327.295,E,038.9,235.3,240418,000.0,W*70
$GPGGA,073602.420,5227.301,N,01327.283,E,1,12,1.0,0.0,M,0.0,M,,*66
$GPGSA,A,3,01,02,03,04,05,06,07,08,09,10,11,12,1.0,1.0,1.0*30
$GPRMC,073602.420,A,5227.301,N,01327.283,E,038.9,235.3,240418,000.0,W*7C
$GPGGA,073603.420,5227.293,N,01327.271,E,1,12,1.0,0.0,M,0.0,M,,*60
$GPGSA,A,3,01,02,03,04,05,06,07,08,09,10,11,12,1.0,1.0,1.0*30
$GPRMC,073603.420,A,5227.293,N,01327.271,E,038.9,235.3,240418,000.0,W*7A
$GPGGA,073604.420,5227.285,N,01327.259,E,1,12,1.0,0.0,M,0.0,M,,*6A
$GPGSA,A,3,01,02,03,04,05,06,07,08,09,10,11,12,1.0,1.0,1.0*30
$GPRMC,073604.420,A,5227.285,N,01327.259,E,038.9,235.3,240418,000.0,W*70
$GPGGA,073605.420,5227.277,N,01327.248,E,1,12,1.0,0.0,M,0.0,M,,*66
$GPGSA,A,3,01,02,03,04,05,06,07,08,09,10,11,12,1.0,1.0,1.0*30
$GPRMC,073605.420,A,5227.277,N,01327.248,E,038.9,235.3,240418,000.0,W*7C
$GPGGA,073606.420,5227.269,N,01327.236,E,1,12,1.0,0.0,M,0.0,M,,*63
$GPGSA,A,3,01,02,03,04,05,06,07,08,09,10,11,12,1.0,1.0,1.0*30
$GPRMC,073606.420,A,5227.269,N,01327.236,E,038.9,235.3,240418,000.0,W*79
$GPGGA,073607.420,5227.261,N,01327.224,E,1,12,1.0,0.0,M,0.0,M,,*69
$GPGSA,A,3,01,02,03,04,05,06,07,08,09,10,11,12,1.0,1.0,1.0*30
$GPRMC,073607.420,A,5227.261,N,01327.224,E,038.9,235.3,240418,000.0,W*73
$GPGGA,073608.420,5227.253,N,01327.212,E,1,12,1.0,0.0,M,0.0,M,,*62
$GPGSA,A,3,01,02,03,04,05,06,07,08,09,10,11,12,1.0,1.0,1.0*30
$GPRMC,073608.420,A,5227.253,N,01327.212,E,038.9,235.3,240418,000.0,W*78
$GPGGA,073609.420,5227.245,N,01327.201,E,1,12,1.0,0.0,M,0.0,M,,*66
$GPGSA,A,3,01,02,03,04,05,06,07,08,09,10,11,12,1.0,1.0,1.0*30
$GPRMC,073609.420,A,5227.245,N,01327.201,E,038.9,235.3,240418,000.0,W*7C
$GPGGA,073610.420,5227.237,N,01327.189,E,1,12,1.0,0.0,M,0.0,M,,*68
$GPGSA,A,3,01,02,03,04,05,06,07,08,09,10,11,12,1.0,1.0,1.0*30
$GPRMC,073610.420,A,5227.237,N,01327.189,E,038.9,235.3,240418,000.0,W*72
$GPGGA,073611.420,5227.228,N,01327.177,E,1,12,1.0,0.0,M,0.0,M,,*66
$GPGSA,A,3,01,02,03,04,05,06,07,08,09,10,11,12,1.0,1.0,1.0*30
$GPRMC,073611.420,A,5227.228,N,01327.177,E,038.9,235.3,240418,000.0,W*7C
$GPGGA,073612.420,5227.220,N,01327.165,E,1,12,1.0,0.0,M,0.0,M,,*6E
$GPGSA,A,3,01,02,03,04,05,06,07,08,09,10,11,12,1.0,1.0,1.0*30
$GPRMC,073612.420,A,5227.220,N,01327.165,E,038.9,235.3,240418,000.0,W*74
$GPGGA,073613.420,5227.212,N,01327.154,E,1,12,1.0,0.0,M,0.0,M,,*6C
$GPGSA,A,3,01,02,03,04,05,06,07,08,09,10,11,12,1.0,1.0,1.0*30
$GPRMC,073613.420,A,5227.212,N,01327.154,E,038.9,235.3,240418,000.0,W*76
$GPGGA,073614.420,5227.204,N,01327.142,E,1,12,1.0,0.0,M,0.0,M,,*6B
$GPGSA,A,3,01,02,03,04,05,06,07,08,09,10,11,12,1.0,1.0,1.0*30
$GPRMC,073614.420,A,5227.204,N,01327.142,E,038.9,235.3,240418,000.0,W*71
$GPGGA,073615.420,5227.196,N,01327.130,E,1,12,1.0,0.0,M,0.0,M,,*67
$GPGSA,A,3,01,02,03,04,05,06,07,08,09,10,11,12,1.0,1.0,1.0*30
$GPRMC,073615.420,A,5227.196,N,01327.130,E,038.9,235.3,240418,000.0,W*7D
$GPGGA,073616.420,5227.188,N,01327.119,E,1,12,1.0,0.0,M,0.0,M,,*60
$GPGSA,A,3,01,02,03,04,05,06,07,08,09,10,11,12,1.0,1.0,1.0*30
$GPRMC,073616.420,A,5227.188,N,01327.119,E,038.9,235.3,240418,000.0,W*7A
$GPGGA,073617.420,5227.180,N,01327.107,E,1,12,1.0,0.0,M,0.0,M,,*66
$GPGSA,A,3,01,02,03,04,05,06,07,08,09,10,11,12,1.0,1.0,1.0*30
$GPRMC,073617.420,A,5227.180,N,01327.107,E,038.9,235.3,240418,000.0,W*7C
$GPGGA,073618.420,5227.172,N,01327.095,E,1,12,1.0,0.0,M,0.0,M,,*6E
$GPGSA,A,3,01,02,03,04,05,06,07,08,09,10,11,12,1.0,1.0,1.0*30
$GPRMC,073618.420,A,5227.172,N,01327.095,E,038.9,235.3,240418,000.0,W*74
$GPGGA,073619.420,5227.164,N,01327.083,E,1,12,1.0,0.0,M,0.0,M,,*6F
$GPGSA,A,3,01,02,03,04,05,06,07,08,09,10,11,12,1.0,1.0,1.0*30
$GPRMC,073619.420,A,5227.164,N,01327.083,E,038.9,235.3,240418,000.0,W*75
$GPGGA,073620.420,5227.156,N,01327.072,E,1,12,1.0,0.0,M,0.0,M,,*6A
$GPGSA,A,3,01,02,03,04,05,06,07,08,09,10,11,12,1.0,1.0,1.0*30
$GPRMC,073620.420,A,5227.156,N,01327.072,E,038.9,235.3,240418,000.0,W*70
$GPGGA,073621.420,5227.148,N,01327.060,E,1,12,1.0,0.0,M,0.0,M,,*67
$GPGSA,A,3,01,02,03,04,05,06,07,08,09,10,11,12,1.0,1.0,1.0*30
$GPRMC,073621.420,A,5227.148,N,01327.060,E,038.9,235.3,240418,000.0,W*7D
$GPGGA,073622.420,5227.140,N,01327.048,E,1,12,1.0,0.0,M,0.0,M,,*66
$GPGSA,A,3,01,02,03,04,05,06,07,08,09,10,11,12,1.0,1.0,1.0*30
$GPRMC,073622.420,A,5227.140,N,01327.048,E,038.9,235.3,240418,000.0,W*7C
$GPGGA,073623.420,5227.132,N,01327.036,E,1,12,1.0,0.0,M,0.0,M,,*6B
$GPGSA,A,3,01,02,03,04,05,06,07,08,09,10,11,12,1.0,1.0,1.0*30
$GPRMC,073623.420,A,5227.132,N,01327.036,E,038.9,235.3,240418,000.0,W*71
$GPGGA,073624.420,5227.123,N,01327.025,E,1,12,1.0,0.0,M,0.0,M,,*6E
$GPGSA,A,3,01,02,03,04,05,06,07,08,09,10,11,12,1.0,1.0,1.0*30
$GPRMC,073624.420,A,5227.123,N,01327.025,E,038.9,235.3,240418,000.0,W*74
$GPGGA,073625.420,5227.115,N,01327.013,E,1,12,1.0,0.0,M,0.0,M,,*6F
$GPGSA,A,3,01,02,03,04,05,06,07,08,09,10,11,12,1.0,1.0,1.0*30
$GPRMC,073625.420,A,5227.115,N,01327.013,E,038.9,235.3,240418,000.0,W*75
$GPGGA,073626.420,5227.107,N,01327.001,E,1,12,1.0,0.0,M,0.0,M,,*6C
$GPGSA,A,3,01,02,03,04,05,06,07,08,09,10,11,12,1.0,1.0,1.0*30
$GPRMC,073626.420,A,5227.107,N,01327.001,E,038.9,235.3,240418,000.0,W*76
$GPGGA,073627.420,5227.099,N,01326.989,E,1,12,1.0,0.0,M,0.0,M,,*63
$GPGSA,A,3,01,02,03,04,05,06,07,08,09,10,11,12,1.0,1.0,1.0*30
$GPRMC,073627.420,A,5227.099,N,01326.989,E,038.9,235.3,240418,000.0,W*79
$GPGGA,073628.420,5227.091,N,01326.978,E,1,12,1.0,0.0,M,0.0,M,,*6A
$GPGSA,A,3,01,02,03,04,05,06,07,08,09,10,11,12,1.0,1.0,1.0*30
$GPRMC,073628.420,A,5227.091,N,01326.978,E,038.9,235.3,240418,000.0,W*70
$GPGGA,073629.420,5227.083,N,01326.966,E,1,12,1.0,0.0,M,0.0,M,,*67
$GPGSA,A,3,01,02,03,04,05,06,07,08,09,10,11,12,1.0,1.0,1.0*30
$GPRMC,073629.420,A,5227.083,N,01326.966,E,038.9,235.3,240418,000.0,W*7D
$GPGGA,073630.420,5227.075,N,01326.954,E,1,12,1.0,0.0,M,0.0,M,,*67
$GPGSA,A,3,01,02,03,04,05,06,07,08,09,10,11,12,1.0,1.0,1.0*30
$GPRMC,073630.420,A,5227.075,N,01326.954,E,038.9,235.3,240418,000.0,W*7D
$GPGGA,073631.420,5227.067,N,01326.943,E,1,12,1.0,0.0,M,0.0,M,,*63
$GPGSA,A,3,01,02,03,04,05,06,07,08,09,10,11,12,1.0,1.0,1.0*30
$GPRMC,073631.420,A,5227.067,N,01326.943,E,038.9,235.3,240418,000.0,W*79
$GPGGA,073632.420,5227.059,N,01326.931,E,1,12,1.0,0.0,M,0.0,M,,*68
$GPGSA,A,3,01,02,03,04,05,06,07,08,09,10,11,12,1.0,1.0,1.0*30
$GPRMC,073632.420,A,5227.059,N,01326.931,E,038.9,235.3,240418,000.0,W*72
$GPGGA,073633.420,5227.051,N,01326.919,E,1,12,1.0,0.0,M,0.0,M,,*6B
$GPGSA,A,3,01,02,03,04,05,06,07,08,09,10,11,12,1.0,1.0,1.0*30
$GPRMC,073633.420,A,5227.051,N,01326.919,E,038.9,235.3,240418,000.0,W*71
$GPGGA,073634.420,5227.043,N,01326.907,E,1,12,1.0,0.0,M,0.0,M,,*60
$GPGSA,A,3,01,02,03,04,05,06,07,08,09,10,11,12,1.0,1.0,1.0*30
$GPRMC,073634.420,A,5227.043,N,01326.907,E,038.9,235.3,240418,000.0,W*7A
$GPGGA,073635.420,5227.035,N,01326.896,E,1,12,1.0,0.0,M,0.0,M,,*69
$GPGSA,A,3,01,02,03,04,05,06,07,08,09,10,11,12,1.0,1.0,1.0*30
$GPRMC,073635.420,A,5227.035,N,01326.896,E,038.9,235.3,240418,000.0,W*73
$GPGGA,073636.420,5227.026,N,01326.884,E,1,12,1.0,0.0,M,0.0,M,,*6B
$GPGSA,A,3,01,02,03,04,05,06,07,08,09,10,11,12,1.0,1.0,1.0*30
$GPRMC,073636.420,A,5227.026,N,01326.884,E,038.9,235.3,240418,000.0,W*71
$GPGGA,073637.420,5227.018,N,01326.872,E,1,12,1.0,0.0,M,0.0,M,,*6E
$GPGSA,A,3,01,02,03,04,05,06,07,08,09,10,11,12,1.0,1.0,1.0*30
$GPRMC,073637.420,A,5227.018,N,01326.872,E,038.9,235.3,240418,000.0,W*74
$GPGGA,073638.420,5227.010,N,01326.860,E,1,12,1.0,0.0,M,0.0,M,,*6A
$GPGSA,A,3,01,02,03,04,05,06,07,08,09,10,11,12,1.0,1.0,1.0*30
$GPRMC,073638.420,A,5227.010,N,01326.860,E,038.9,235.3,240418,000.0,W*70
$GPGGA,073639.420,5227.002,N,01326.849,E,1,12,1.0,0.0,M,0.0,M,,*63
$GPGSA,A,3,01,02,03,04,05,06,07,08,09,10,11,12,1.0,1.0,1.0*30
$GPRMC,073639.420,A,5227.002,N,01326.849,E,038.9,235.3,240418,000.0,W*79
$GPGGA,073640.420,5226.994,N,01326.837,E,1,12,1.0,0.0,M,0.0,M,,*63
$GPGSA,A,3,01,02,03,04,05,06,07,08,09,10,11,12,1.0,1.0,1.0*30
$GPRMC,073640.420,A,5226.994,N,01326.837,E,038.9,235.3,240418,000.0,W*79
$GPGGA,073641.420,5226.986,N,01326.825,E,1,12,1.0,0.0,M,0.0,M,,*62
$GPGSA,A,3,01,02,03,04,05,06,07,08,09,10,11,12,1.0,1.0,1.0*30
$GPRMC,073641.420,A,5226.986,N,01326.825,E,038.9,235.3,240418,000.0,W*78
$GPGGA,073642.420,5226.978,N,01326.813,E,1,12,1.0,0.0,M,0.0,M,,*65
$GPGSA,A,3,01,02,03,04,05,06,07,08,09,10,11,12,1.0,1.0,1.0*30
$GPRMC,073642.420,A,5226.978,N,01326.813,E,038.9,235.3,240418,000.0,W*7F
$GPGGA,073643.420,5226.970,N,01326.802,E,1,12,1.0,0.0,M,0.0,M,,*6C
$GPGSA,A,3,01,02,03,04,05,06,07,08,09,10,11,12,1.0,1.0,1.0*30
$GPRMC,073643.420,A,5226.970,N,01326.802,E,038.9,235.3,240418,000.0,W*76
$GPGGA,073644.420,5226.962,N,01326.790,E,1,12,1.0,0.0,M,0.0,M,,*6C
$GPGSA,A,3,01,02,03,04,05,06,07,08,09,10,11,12,1.0,1.0,1.0*30
$GPRMC,073644.420,A,5226.962,N,01326.790,E,038.9,235.3,240418,000.0,W*76
$GPGGA,073645.420,5226.954,N,01326.778,E,1,12,1.0,0.0,M,0.0,M,,*6E
$GPGSA,A,3,01,02,03,04,05,06,07,08,09,10,11,12,1.0,1.0,1.0*30
$GPRMC,073645.420,A,5226.954,N,01326.778,E,038.9,235.3,240418,000.0,W*74
$GPGGA,073646.420,5226.946,N,01326.767,E,1,12,1.0,0.0,M,0.0,M,,*60
$GPGSA,A,3,01,02,03,04,05,06,07,08,09,10,11,12,1.0,1.0,1.0*30
$GPRMC,073646.420,A,5226.946,N,01326.767,E,038.9,235.3,240418,000.0,W*7A
$GPGGA,073647.420,5226.938,N,01326.755,E,1,12,1.0,0.0,M,0.0,M,,*69
$GPGSA,A,3,01,02,03,04,05,06,07,08,09,10,11,12,1.0,1.0,1.0*30
$GPRMC,073647.420,A,5226.938,N,01326.755,E,038.9,235.3,240418,000.0,W*73
$GPGGA,073648.420,5226.930,N,01326.743,E,1,12,1.0,0.0,M,0.0,M,,*69
$GPGSA,A,3,01,02,03,04,05,06,07,08,09,10,11,12,1.0,1.0,1.0*30
$GPRMC,073648.420,A,5226.930,N,01326.743,E,038.9,235.3,240418,000.0,W*73
$GPGGA,073649.420,5226.921,N,01326.731,E,1,12,1.0,0.0,M,0.0,M,,*6D
$GPGSA,A,3,01,02,03,04,05,06,07,08,09,10,11,12,1.0,1.0,1.0*30
$GPRMC,073649.420,A,5226.921,N,01326.731,E,038.9,235.3,240418,000.0,W*77
$GPGGA,073650.420,5226.913,N,01326.720,E,1,12,1.0,0.0,M,0.0,M,,*64
$GPGSA,A,3,01,02,03,04,05,06,07,08,09,10,11,12,1.0,1.0,1.0*30
$GPRMC,073650.420,A,5226.913,N,01326.720,E,038.9,235.3,240418,000.0,W*7E
$GPGGA,073651.420,5226.905,N,01326.708,E,1,12,1.0,0.0,M,0.0,M,,*68
$GPGSA,A,3,01,02,03,04,05,06,07,08,09,10,11,12,1.0,1.0,1.0*30
$GPRMC,073651.420,A,5226.905,N,01326.708,E,038.9,235.3,240418,000.0,W*72
$GPGGA,073652.420,5226.897,N,01326.696,E,1,12,1.0,0.0,M,0.0,M,,*67
$GPGSA,A,3,01,02,03,04,05,06,07,08,09,10,11,12,1.0,1.0,1.0*30
$GPRMC,073652.420,A,5226.897,N,01326.696,E,038.9,235.3,240418,000.0,W*7D
$GPGGA,073653.420,5226.889,N,01326.684,E,1,12,1.0,0.0,M,0.0,M,,*6A
$GPGSA,A,3,01,02,03,04,05,06,07,08,09,10,11,12,1.0,1.0,1.0*30
$GPRMC,073653.420,A,5226.889,N,01326.684,E,038.9,235.3,240418,000.0,W*70
$GPGGA,073654.420,5226.881,N,01326.673,E,1,12,1.0,0.0,M,0.0,M,,*6D
$GPGSA,A,3,01,02,03,04,05,06,07,08,09,10,11,12,1.0,1.0,1.0*30
$GPRMC,073654.420,A,5226.881,N,01326.673,E,038.9,235.3,240418,000.0,W*77
$GPGGA,073655.420,5226.873,N,01326.661,E,1,12,1.0,0.0,M,0.0,M,,*62
$GPGSA,A,3,01,02,03,04,05,06,07,08,09,10,11,12,1.0,1.0,1.0*30
$GPRMC,073655.420,A,5226.873,N,01326.661,E,038.9,235.3,240418,000.0,W*78
$GPGGA,073656.420,5226.865,N,01326.649,E,1,12,1.0,0.0,M,0.0,M,,*6C
$GPGSA,A,3,01,02,03,04,05,06,07,08,09,10,11,12,1.0,1.0,1.0*30
$GPRMC,073656.420,A,5226.865,N,01326.649,E,038.9,235.3,240418,000.0,W*76
$GPGGA,073657.420,5226.857,N,01326.638,E,1,12,1.0,0.0,M,0.0,M,,*6A
$GPGSA,A,3,01,02,03,04,05,06,07,08,09,10,11,12,1.0,1.0,1.0*30
$GPRMC,073657.420,A,5226.857,N,01326.638,E,038.9,235.3,240418,000.0,W*70
$GPGGA,073658.420,5226.849,N,01326.626,E,1,12,1.0,0.0,M,0.0,M,,*65
$GPGSA,A,3,01,02,03,04,05,06,07,08,09,10,11,12,1.0,1.0,1.0*30
$GPRMC,073658.420,A,5226.849,N,01326.626,E,038.9,235.3,240418,000.0,W*7F
$GPGGA,073659.420,5226.841,N,01326.614,E,1,12,1.0,0.0,M,0.0,M,,*6D
$GPGSA,A,3,01,02,03,04,05,06,07,08,09,10,11,12,1.0,1.0,1.0*30
$GPRMC,073659.420,A,5226.841,N,01326.614,E,038.9,235.3,240418,000.0,W*77
$GPGGA,073700.420,5226.833,N,01326.602,E,1,12,1.0,0.0,M,0.0,M,,*62
$GPGSA,A,3,01,02,03,04,05,06,07,08,09,10,11,12,1.0,1.0,1.0*30
$GPRMC,073700.420,A,5226.833,N,01326.602,E,038.9,235.3,240418,000.0,W*78
$GPGGA,073701.420,5226.825,N,01326.591,E,1,12,1.0,0.0,M,0.0,M,,*6D
$GPGSA,A,3,01,02,03,04,05,06,07,08,09,10,11,12,1.0,1.0,1.0*30
$GPRMC,073701.420,A,5226.825,N,01326.591,E,038.9,235.3,240418,000.0,W*77
$GPGGA,073702.420,5226.816,N,01326.579,E,1,12,1.0,0.0,M,0.0,M,,*68
$GPGSA,A,3,01,02,03,04,05,06,07,08,09,10,11,12,1.0,1.0,1.0*30
$GPRMC,073702.420,A,5226.816,N,01326.579,E,038.9,235.3,240418,000.0,W*72
$GPGGA,073703.420,5226.808,N,01326.567,E,1,12,1.0,0.0,M,0.0,M,,*69
$GPGSA,A,3,01,02,03,04,05,06,07,08,09,10,11,12,1.0,1.0,1.0*30
$GPRMC,073703.420,A,5226.808,N,01326.567,E,038.9,235.3,240418,000.0,W*73
$GPGGA,073704.420,5226.800,N,01326.555,E,1,12,1.0,0.0,M,0.0,M,,*67
$GPGSA,A,3,01,02,03,04,05,06,07,08,09,10,11,12,1.0,1.0,1.0*30
$GPRMC,073704.420,A,5226.800,N,01326.555,E,038.9,235.3,240418,000.0,W*7D
$GPGGA,073705.420,5226.792,N,01326.544,E,1,12,1.0,0.0,M,0.0,M,,*62
$GPGSA,A,3,01,02,03,04,05,06,07,08,09,10,11,12,1.0,1.0,1.0*30
$GPRMC,073705.420,A,5226.792,N,01326.544,E,038.9,235.3,240418,000.0,W*78
$GPGGA,073706.420,5226.784,N,01326.532,E,1,12,1.0,0.0,M,0.0,M,,*67
$GPGSA,A,3,01,02,03,04,05,06,07,08,09,10,11,12,1.0,1.0,1.0*30
$GPRMC,073706.420,A,5226.784,N,01326.532,E,038.9,235.3,240418,000.0,W*7D
$GPGGA,073707.420,5226.776,N,01326.520,E,1,12,1.0,0.0,M,0.0,M,,*68
$GPGSA,A,3,01,02,03,04,05,06,07,08,09,10,11,12,1.0,1.0,1.0*30
$GPRMC,073707.420,A,5226.776,N,01326.520,E,038.9,235.3,240418,000.0,W*72
$GPGGA,073708.420,5226.768,N,01326.508,E,1,12,1.0,0.0,M,0.0,M,,*62
$GPGSA,A,3,01,02,03,04,05,06,07,08,09,10,11,12,1.0,1.0,1.0*30
$GPRMC,073708.420,A,5226.768,N,01326.508,E,038.9,235.3,240418,000.0,W*78
$GPGGA,073709.420,5226.760,N,01326.497,E,1,12,1.0,0.0,M,0.0,M,,*6C
$GPGSA,A,3,01,02,03,04,05,06,07,08,09,10,11,12,1.0,1.0,1.0*30
$GPRMC,073709.420,A,5226.760,N,01326.497,E,038.9,235.3,240418,000.0,W*76
$GPGGA,073710.420,5226.752,N,01326.485,E,1,12,1.0,0.0,M,0.0,M,,*66
$GPGSA,A,3,01,02,03,04,05,06,07,08,09,10,11,12,1.0,1.0,1.0*30
$GPRMC,073710.420,A,5226.752,N,01326.485,E,038.9,235.3,240418,000.0,W*7C
$GPGGA,073711.420,5226.744,N,01326.473,E,1,12,1.0,0.0,M,0.0,M,,*69
$GPGSA,A,3,01,02,03,04,05,06,07,08,09,10,11,12,1.0,1.0,1.0*30
$GPRMC,073711.420,A,5226.744,N,01326.473,E,038.9,235.3,240418,000.0,W*73
$GPGGA,073712.420,5226.736,N,01326.462,E,1,12,1.0,0.0,M,0.0,M,,*6F
$GPGSA,A,3,01,02,03,04,05,06,07,08,09,10,11,12,1.0,1.0,1.0*30
$GPRMC,073712.420,A,5226.736,N,01326.462,E,038.9,235.3,240418,000.0,W*75
$GPGGA,073713.420,5226.728,N,01326.450,E,1,12,1.0,0.0,M,0.0,M,,*60
$GPGSA,A,3,01,02,03,04,05,06,07,08,09,10,11,12,1.0,1.0,1.0*30
$GPRMC,073713.420,A,5226.728,N,01326.450,E,038.9,235.3,240418,000.0,W*7A
$GPGGA,073714.420,5226.720,N,01326.438,E,1,12,1.0,0.0,M,0.0,M,,*61
$GPGSA,A,3,01,02,03,04,05,06,07,08,09,10,11,12,1.0,1.0,1.0*30
$GPRMC,073714.420,A,5226.720,N,01326.438,E,038.9,235.3,240418,000.0,W*7B
$GPGGA,073715.420,5226.711,N,01326.426,E,1,12,1.0,0.0,M,0.0,M,,*6D
$GPGSA,A,3,01,02,03,04,05,06,07,08,09,10,11,12,1.0,1.0,1.0*30
$GPRMC,073715.420,A,5226.711,N,01326.426,E,038.9,235.3,240418,000.0,W*77
$GPGGA,073716.420,5226.703,N,01326.415,E,1,12,1.0,0.0,M,0.0,M,,*6D
$GPGSA,A,3,01,02,03,04,05,06,07,08,09,10,11,12,1.0,1.0,1.0*30
$GPRMC,073716.420,A,5226.703,N,01326.415,E,038.9,235.3,240418,000.0,W*77
$GPGGA,073717.420,5226.695,N,01326.403,E,1,12,1.0,0.0,M,0.0,M,,*65
$GPGSA,A,3,01,02,03,04,05,06,07,08,09,10,11,12,1.0,1.0,1.0*30
$GPRMC,073717.420,A,5226.695,N,01326.403,E,038.9,235.3,240418,000.0,W*7F
$GPGGA,073718.420,5226.687,N,01326.391,E,1,12,1.0,0.0,M,0.0,M,,*65
$GPGSA,A,3,01,02,03,04,05,06,07,08,09,10,11,12,1.0,1.0,1.0*30
$GPRMC,073718.420,A,5226.687,N,01326.391,E,038.9,235.3,240418,000.0,W*7F
$GPGGA,073719.420,5226.679,N,01326.379,E,1,12,1.0,0.0,M,0.0,M,,*63
$GPGSA,A,3,01,02,03,04,05,06,07,08,09,10,11,12,1.0,1.0,1.0*30
$GPRMC,073719.420,A,5226.679,N,01326.379,E,038.9,235.3,240418,000.0,W*79
$GPGGA,073720.420,5226.671,N,01326.368,E,1,12,1.0,0.0,M,0.0,M,,*61
$GPGSA,A,3,01,02,03,04,05,06,07,08,09,10,11,12,1.0,1.0,1.0*30
$GPRMC,073720.420,A,5226.671,N,01326.368,E,038.9,235.3,240418,000.0,W*7B
$GPGGA,073721.420,5226.663,N,01326.356,E,1,12,1.0,0.0,M,0.0,M,,*6E
$GPGSA,A,3,01,02,03,04,05,06,07,08,09,10,11,12,1.0,1.0,1.0*30
$GPRMC,073721.420,A,5226.663,N,01326.356,E,038.9,235.3,240418,000.0,W*74
$GPGGA,073722.420,5226.655,N,01326.344,E,1,12,1.0,0.0,M,0.0,M,,*6B
$GPGSA,A,3,01,02,03,04,05,06,07,08,09,10,11,12,1.0,1.0,1.0*30
$GPRMC,073722.420,A,5226.655,N,01326.344,E,038.9,235.3,240418,000.0,W*71
$GPGGA,073723.420,5226.647,N,01326.332,E,1,12,1.0,0.0,M,0.0,M,,*68
$GPGSA,A,3,01,02,03,04,05,06,07,08,09,10,11,12,1.0,1.0,1.0*30
$GPRMC,073723.420,A,5226.647,N,01326.332,E,038.9,235.3,240418,000.0,W*72
$GPGGA,073724.420,5226.639,N,01326.321,E,1,12,1.0,0.0,M,0.0,M,,*64
$GPGSA,A,3,01,02,03,04,05,06,07,08,09,10,11,12,1.0,1.0,1.0*30
$GPRMC,073724.420,A,5226.639,N,01326.321,E,038.9,235.3,240418,000.0,W*7E
$GPGGA,073725.420,5226.631,N,01326.309,E,1,12,1.0,0.0,M,0.0,M,,*67
$GPGSA,A,3,01,02,03,04,05,06,07,08,09,10,11,12,1.0,1.0,1.0*30
$GPRMC,073725.420,A,5226.631,N,01326.309,E,038.9,235.3,240418,000.0,W*7D
$GPGGA,073726.420,5226.623,N,01326.297,E,1,12,1.0,0.0,M,0.0,M,,*61
$GPGSA,A,3,01,02,03,04,05,06,07,08,09,10,11,12,1.0,1.0,1.0*30
$GPRMC,073726.420,A,5226.623,N,01326.297,E,038.9,235.3,240418,000.0,W*7B
$GPGGA,073727.420,5226.615,N,01326.286,E,1,12,1.0,0.0,M,0.0,M,,*65
$GPGSA,A,3,01,02,03,04,05,06,07,08,09,10,11,12,1.0,1.0,1.0*30
$GPRMC,073727.420,A,5226.615,N,01326.286,E,038.9,235.3,240418,000.0,W*7F
$GPGGA,073728.420,5226.606,N,01326.274,E,1,12,1.0,0.0,M,0.0,M,,*65
$GPGSA,A,3,01,02,03,04,05,06,07,08,09,10,11,12,1.0,1.0,1.0*30
$GPRMC,073728.420,A,5226.606,N,01326.274,E,038.9,235.3,240418,000.0,W*7F
$GPGGA,073729.420,5226.598,N,01326.262,E,1,12,1.0,0.0,M,0.0,M,,*67
$GPGSA,A,3,01,02,03,04,05,06,07,08,09,10,11,12,1.0,1.0,1.0*30
$GPRMC,073729.420,A,5226.598,N,01326.262,E,038.9,235.3,240418,000.0,W*7D
$GPGGA,073730.420,5226.590,N,01326.250,E,1,12,1.0,0.0,M,0.0,M,,*66
$GPGSA,A,3,01,02,03,04,05,06,07,08,09,10,11,12,1.0,1.0,1.0*30
$GPRMC,073730.420,A,5226.590,N,01326.250,E,038.9,235.3,240418,000.0,W*7C
$GPGGA,073731.420,5226.582,N,01326.239,E,1,12,1.0,0.0,M,0.0,M,,*6B
$GPGSA,A,3,01,02,03,04,05,06,07,08,09,10,11,12,1.0,1.0,1.0*30
$GPRMC,073731.420,A,5226.582,N,01326.239,E,038.9,235.3,240418,000.0,W*71
$GPGGA,073732.420,5226.574,N,01326.227,E,1,12,1.0,0.0,M,0.0,M,,*6E
$GPGSA,A,3,01,02,03,04,05,06,07,08,09,10,11,12,1.0,1.0,1.0*30
$GPRMC,073732.420,A,5226.574,N,01326.227,E,038.9,235.3,240418,000.0,W*74
$GPGGA,073733.420,5226.566,N,01326.215,E,1,12,1.0,0.0,M,0.0,M,,*6D
$GPGSA,A,3,01,02,03,04,05,06,07,08,09,10,11,12,1.0,1.0,1.0*30
$GPRMC,073733.420,A,5226.566,N,01326.215,E,038.9,235.3,240418,000.0,W*77
$GPGGA,073734.420,5226.558,N,01326.203,E,1,12,1.0,0.0,M,0.0,M,,*60
$GPGSA,A,3,01,02,03,04,05,06,07,08,09,10,11,12,1.0,1.0,1.0*30
$GPRMC,073734.420,A,5226.558,N,01326.203,E,038.9,235.3,240418,000.0,W*7A
$GPGGA,073735.420,5226.550,N,01326.192,E,1,12,1.0,0.0,M,0.0,M,,*62
$GPGSA,A,3,01,02,03,04,05,06,07,08,09,10,11,12,1.0,1.0,1.0*30
$GPRMC,073735.420,A,5226.550,N,01326.192,E,038.9,235.3,240418,000.0,W*78
$GPGGA,073736.420,5226.542,N,01326.180,E,1,12,1.0,0.0,M,0.0,M,,*61
$GPGSA,A,3,01,02,03,04,05,06,07,08,09,10,11,12,1.0,1.0,1.0*30
$GPRMC,073736.420,A,5226.542,N,01326.180,E,038.9,235.3,240418,000.0,W*7B
$GPGGA,073737.420,5226.534,N,01326.168,E,1,12,1.0,0.0,M,0.0,M,,*67
$GPGSA,A,3,01,02,03,04,05,06,07,08,09,10,11,12,1.0,1.0,1.0*30
$GPRMC,073737.420,A,5226.534,N,01326.168,E,038.9,235.3,240418,000.0,W*7D
$GPGGA,073738.420,5226.526,N,01326.156,E,1,12,1.0,0.0,M,0.0,M,,*66
$GPGSA,A,3,01,02,03,04,05,06,07,08,09,10,11,12,1.0,1.0,1.0*30
$GPRMC,073738.420,A,5226.526,N,01326.156,E,038.9,235.3,240418,000.0,W*7C
$GPGGA,073739.420,5226.518,N,01326.145,E,1,12,1.0,0.0,M,0.0,M,,*68
$GPGSA,A,3,01,02,03,04,05,06,07,08,09,10,11,12,1.0,1.0,1.0*30
$GPRMC,073739.420,A,5226.518,N,01326.145,E,038.9,235.3,240418,000.0,W*72
$GPGGA,073740.420,5226.509,N,01326.133,E,1,12,1.0,0.0,M,0.0,M,,*67
$GPGSA,A,3,01,02,03,04,05,06,07,08,09,10,11,12,1.0,1.0,1.0*30
$GPRMC,073740.420,A,5226.509,N,01326.133,E,038.9,235.3,240418,000.0,W*7D
$GPGGA,073741.420,5226.501,N,01326.121,E,1,12,1.0,0.0,M,0.0,M,,*6D
$GPGSA,A,3,01,02,03,04,05,06,07,08,09,10,11,12,1.0,1.0,1.0*30
$GPRMC,073741.420,A,5226.501,N,01326.121,E,038.9,235.3,240418,000.0,W*77
$GPGGA,073742.420,5226.493,N,01326.110,E,1,12,1.0,0.0,M,0.0,M,,*66
$GPGSA,A,3,01,02,03,04,05,06,07,08,09,10,11,12,1.0,1.0,1.0*30
$GPRMC,073742.420,A,5226.493,N,01326.110,E,038.9,235.3,240418,000.0,W*7C
$GPGGA,073743.420,5226.485,N,01326.098,E,1,12,1.0,0.0,M,0.0,M,,*61
$GPGSA,A,3,01,02,03,04,05,06,07,08,09,10,11,12,1.0,1.0,1.0*30
$GPRMC,073743.420,A,5226.485,N,01326.098,E,038.9,235.3,240418,000.0,W*7B
$GPGGA,073744.420,5226.477,N,01326.086,E,1,12,1.0,0.0,M,0.0,M,,*64
$GPGSA,A,3,01,02,03,04,05,06,07,08,09,10,11,12,1.0,1.0,1.0*30
$GPRMC,073744.420,A,5226.477,N,01326.086,E,038.9,235.3,240418,000.0,W*7E
$GPGGA,073745.420,5226.469,N,01326.074,E,1,12,1.0,0.0,M,0.0,M,,*67
$GPGSA,A,3,01,02,03,04,05,06,07,08,09,10,11,12,1.0,1.0,1.0*30
$GPRMC,073745.420,A,5226.469,N,01326.074,E,038.9,235.3,240418,000.0,W*7D
$GPGGA,073746.420,5226.461,N,01326.063,E,1,12,1.0,0.0,M,0.0,M,,*6A
$GPGSA,A,3,01,02,03,04,05,06,07,08,09,10,11,12,1.0,1.0,1.0*30
$GPRMC,073746.420,A,5226.461,N,01326.063,E,038.9,235.3,240418,000.0,W*70
$GPGGA,073747.420,5226.453,N,01326.051,E,1,12,1.0,0.0,M,0.0,M,,*6B
$GPGSA,A,3,01,02,03,04,05,06,07,08,09,10,11,12,1.0,1.0,1.0*30
$GPRMC,073747.420,A,5226.453,N,01326.051,E,038.9,235.3,240418,000.0,W*71
$GPGGA,073748.420,5226.445,N,01326.039,E,1,12,1.0,0.0,M,0.0,M,,*6D
$GPGSA,A,3,01,02,03,04,05,06,07,08,09,10,11,12,1.0,1.0,1.0*30
$GPRMC,073748.420,A,5226.445,N,01326.039,E,038.9,235.3,240418,000.0,W*77
$GPGGA,073749.420,5226.437,N,01326.027,E,1,12,1.0,0.0,M,0.0,M,,*66
$GPGSA,A,3,01,02,03,04,05,06,07,08,09,10,11,12,1.0,1.0,1.0*30
$GPRMC,073749.420,A,5226.437,N,01326.027,E,038.9,235.3,240418,000.0,W*7C
$GPGGA,073750.420,5226.429,N,01326.016,E,1,12,1.0,0.0,M,0.0,M,,*63
$GPGSA,A,3,01,02,03,04,05,06,07,08,09,10,11,12,1.0,1.0,1.0*30
$GPRMC,073750.420,A,5226.429,N,01326.016,E,038.9,235.3,240418,000.0,W*79
$GPGGA,073751.420,5226.421,N,01326.004,E,1,12,1.0,0.0,M,0.0,M,,*69
$GPGSA,A,3,01,02,03,04,05,06,07,08,09,10,11,12,1.0,1.0,1.0*30
$GPRMC,073751.420,A,5226.421,N,01326.004,E,038.9,235.3,240418,000.0,W*73
$GPGGA,073752.420,5226.413,N,01325.992,E,1,12,1.0,0.0,M,0.0,M,,*6E
$GPGSA,A,3,01,02,03,04,05,06,07,08,09,10,11,12,1.0,1.0,1.0*30
$GPRMC,073752.420,A,5226.413,N,01325.992,E,038.9,235.3,240418,000.0,W*74
$GPGGA,073753.420,5226.404,N,01325.981,E,1,12,1.0,0.0,M,0.0,M,,*6B
$GPGSA,A,3,01,02,03,04,05,06,07,08,09,10,11,12,1.0,1.0,1.0*30
$GPRMC,073753.420,A,5226.404,N,01325.981,E,038.9,235.3,240418,000.0,W*71
$GPGGA,073754.420,5226.396,N,01325.969,E,1,12,1.0,0.0,M,0.0,M,,*66
$GPGSA,A,3,01,02,03,04,05,06,07,08,09,10,11,12,1.0,1.0,1.0*30
$GPRMC,073754.420,A,5226.396,N,01325.969,E,038.9,235.3,240418,000.0,W*7C
$GPGGA,073755.420,5226.388,N,01325.957,E,1,12,1.0,0.0,M,0.0,M,,*65
$GPGSA,A,3,01,02,03,04,05,06,07,08,09,10,11,12,1.0,1.0,1.0*30
$GPRMC,073755.420,A,5226.388,N,01325.957,E,038.9,235.3,240418,000.0,W*7F
$GPGGA,073756.420,5226.380,N,01325.945,E,1,12,1.0,0.0,M,0.0,M,,*6D
$GPGSA,A,3,01,02,03,04,05,06,07,08,09,10,11,12,1.0,1.0,1.0*30
$GPRMC,073756.420,A,5226.380,N,01325.945,E,038.9,235.3,240418,000.0,W*77
$GPGGA,073757.420,5226.372,N,01325.934,E,1,12,1.0,0.0,M,0.0,M,,*67
$GPGSA,A,3,01,02,03,04,05,06,07,08,09,10,11,12,1.0,1.0,1.0*30
$GPRMC,073757.420,A,5226.372,N,01325.934,E,038.9,235.3,240418,000.0,W*7D
$GPGGA,073758.420,5226.364,N,01325.922,E,1,12,1.0,0.0,M,0.0,M,,*68
$GPGSA,A,3,01,02,03,04,05,06,07,08,09,10,11,12,1.0,1.0,1.0*30
$GPRMC,073758.420,A,5226.364,N,01325.922,E,038.9,235.3,240418,000.0,W*72
$GPGGA,073759.420,5226.356,N,01325.910,E,1,12,1.0,0.0,M,0.0,M,,*69
$GPGSA,A,3,01,02,03,04,05,06,07,08,09,10,11,12,1.0,1.0,1.0*30
$GPRMC,073759.420,A,5226.356,N,01325.910,E,038.9,235.3,240418,000.0,W*73
$GPGGA,073800.420,5226.348,N,01325.898,E,1,12,1.0,0.0,M,0.0,M,,*64
$GPGSA,A,3,01,02,03,04,05,06,07,08,09,10,11,12,1.0,1.0,1.0*30
$GPRMC,073800.420,A,5226.348,N,01325.898,E,038.9,235.3,240418,000.0,W*7E
$GPGGA,073801.420,5226.340,N,01325.887,E,1,12,1.0,0.0,M,0.0,M,,*63
$GPGSA,A,3,01,02,03,04,05,06,07,08,09,10,11,12,1.0,1.0,1.0*30
$GPRMC,073801.420,A,5226.340,N,01325.887,E,038.9,235.3,240418,000.0,W*79
$GPGGA,073802.420,5226.332,N,01325.875,E,1,12,1.0,0.0,M,0.0,M,,*68
$GPGSA,A,3,01,02,03,04,05,06,07,08,09,10,11,12,1.0,1.0,1.0*30
$GPRMC,073802.420,A,5226.332,N,01325.875,E,038.9,235.3,240418,000.0,W*72
$GPGGA,073803.420,5226.324,N,01325.863,E,1,12,1.0,0.0,M,0.0,M,,*69
$GPGSA,A,3,01,02,03,04,05,06,07,08,09,10,11,12,1.0,1.0,1.0*30
$GPRMC,073803.420,A,5226.324,N,01325.863,E,038.9,235.3,240418,000.0,W*73
$GPGGA,073804.420,5226.316,N,01325.851,E,1,12,1.0,0.0,M,0.0,M,,*6E
$GPGSA,A,3,01,02,03,04,05,06,07,08,09,10,11,12,1.0,1.0,1.0*30
$GPRMC,073804.420,A,5226.316,N,01325.851,E,038.9,235.3,240418,000.0,W*74
$GPGGA,073805.420,5226.308,N,01325.840,E,1,12,1.0,0.0,M,0.0,M,,*60
$GPGSA,A,3,01,02,03,04,05,06,07,08,09,10,11,12,1.0,1.0,1.0*30
$GPRMC,073805.420,A,5226.308,N,01325.840,E,038.9,235.3,240418,000.0,W*7A
$GPGGA,073806.420,5226.299,N,01325.828,E,1,12,1.0,0.0,M,0.0,M,,*64
$GPGSA,A,3,01,02,03,04,05,06,07,08,09,10,11,12,1.0,1.0,1.0*30
$GPRMC,073806.420,A,5226.299,N,01325.828,E,038.9,235.3,240418,000.0,W*7E
$GPGGA,073807.420,5226.291,N,01325.816,E,1,12,1.0,0.0,M,0.0,M,,*60
$GPGSA,A,3,01,02,03,04,05,06,07,08,09,10,11,12,1.0,1.0,1.0*30
$GPRMC,073807.420,A,5226.291,N,01325.816,E,038.9,235.3,240418,000.0,W*7A
$GPGGA,073808.420,5226.283,N,01325.805,E,1,12,1.0,0.0,M,0.0,M,,*6E
$GPGSA,A,3,01,02,03,04,05,06,07,08,09,10,11,12,1.0,1.0,1.0*30
$GPRMC,073808.420,A,5226.283,N,01325.805,E,038.9,235.3,240418,000.0,W*74
$GPGGA,073809.420,5226.275,N,01325.793,E,1,12,1.0,0.0,M,0.0,M,,*66
$GPGSA,A,3,01,02,03,04,05,06,07,08,09,10,11,12,1.0,1.0,1.0*30
$GPRMC,073809.420,A,5226.275,N,01325.793,E,038.9,235.3,240418,000.0,W*7C
$GPGGA,073810.420,5226.267,N,01325.781,E,1,12,1.0,0.0,M,0.0,M,,*6E
$GPGSA,A,3,01,02,03,04,05,06,07,08,09,10,11,12,1.0,1.0,1.0*30
$GPRMC,073810.420,A,5226.267,N,01325.781,E,038.9,235.3,240418,000.0,W*74
$GPGGA,073811.420,5226.259,N,01325.769,E,1,12,1.0,0.0,M,0.0,M,,*64
$GPGSA,A,3,01,02,03,04,05,06,07,08,09,10,11,12,1.0,1.0,1.0*30
$GPRMC,073811.420,A,5226.259,N,01325.769,E,038.9,235.3,240418,000.0,W*7E
$GPGGA,073812.420,5226.251,N,01325.758,E,1,12,1.0,0.0,M,0.0,M,,*6D
$GPGSA,A,3,01,02,03,04,05,06,07,08,09,10,11,12,1.0,1.0,1.0*30
$GPRMC,073812.420,A,5226.251,N,01325.758,E,038.9,235.3,240418,000.0,W*77
$GPGGA,073813.420,5226.243,N,01325.746,E,1,12,1.0,0.0,M,0.0,M,,*60
$GPGSA,A,3,01,02,03,04,05,06,07,08,09,10,11,12,1.0,1.0,1.0*30
$GPRMC,073813.420,A,5226.243,N,01325.746,E,038.9,235.3,240418,000.0,W*7A
$GPGGA,073814.420,5226.235,N,01325.734,E,1,12,1.0,0.0,M,0.0,M,,*63
$GPGSA,A,3,01,02,03,04,05,06,07,08,09,10,11,12,1.0,1.0,1.0*30
$GPRMC,073814.420,A,5226.235,N,01325.734,E,038.9,235.3,240418,000.0,W*79
$GPGGA,073815.420,5226.227,N,01325.722,E,1,12,1.0,0.0,M,0.0,M,,*66
$GPGSA,A,3,01,02,03,04,05,06,07,08,09,10,11,12,1.0,1.0,1.0*30
$GPRMC,073815.420,A,5226.227,N,01325.722,E,038.9,235.3,240418,000.0,W*7C
$GPGGA,073816.420,5226.219,N,01325.711,E,1,12,1.0,0.0,M,0.0,M,,*68
$GPGSA,A,3,01,02,03,04,05,06,07,08,09,10,11,12,1.0,1.0,1.0*30
$GPRMC,073816.420,A,5226.219,N,01325.711,E,038.9,235.3,240418,000.0,W*72
$GPGGA,073817.420,5226.211,N,01325.699,E,1,12,1.0,0.0,M,0.0,M,,*60
$GPGSA,A,3,01,02,03,04,05,06,07,08,09,10,11,12,1.0,1.0,1.0*30
$GPRMC,073817.420,A,5226.211,N,01325.699,E,038.9,235.3,240418,000.0,W*7A
$GPGGA,073818.420,5226.203,N,01325.687,E,1,12,1.0,0.0,M,0.0,M,,*63
$GPGSA,A,3,01,02,03,04,05,06,07,08,09,10,11,12,1.0,1.0,1.0*30
$GPRMC,073818.420,A,5226.203,N,01325.687,E,038.9,235.3,240418,000.0,W*79
$GPGGA,073819.420,5226.194,N,01325.675,E,1,12,1.0,0.0,M,0.0,M,,*62
$GPGSA,A,3,01,02,03,04,05,06,07,08,09,10,11,12,1.0,1.0,1.0*30
$GPRMC,073819.420,A,5226.194,N,01325.675,E,038.9,235.3,240418,000.0,W*78
$GPGGA,073820.420,5226.186,N,01325.664,E,1,12,1.0,0.0,M,0.0,M,,*6B
$GPGSA,A,3,01,02,03,04,05,06,07,08,09,10,11,12,1.0,1.0,1.0*30
$GPRMC,073820.420,A,5226.186,N,01325.664,E,038.9,235.3,240418,000.0,W*71
$GPGGA,073821.420,5226.178,N,01325.652,E,1,12,1.0,0.0,M,0.0,M,,*6E
$GPGSA,A,3,01,02,03,04,05,06,07,08,09,10,11,12,1.0,1.0,1.0*30
$GPRMC,073821.420,A,5226.178,N,01325.652,E,038.9,235.3,240418,000.0,W*74
$GPGGA,073822.420,5226.170,N,01325.640,E,1,12,1.0,0.0,M,0.0,M,,*66
$GPGSA,A,3,01,02,03,04,05,06,07,08,09,10,11,12,1.0,1.0,1.0*30
$GPRMC,073822.420,A,5226.170,N,01325.640,E,038.9,235.3,240418,000.0,W*7C
$GPGGA,073823.420,5226.162,N,01325.629,E,1,12,1.0,0.0,M,0.0,M,,*6B
$GPGSA,A,3,01,02,03,04,05,06,07,08,09,10,11,12,1.0,1.0,1.0*30
$GPRMC,073823.420,A,5226.162,N,01325.629,E,038.9,235.3,240418,000.0,W*71
$GPGGA,073824.420,5226.154,N,01325.617,E,1,12,1.0,0.0,M,0.0,M,,*64
$GPGSA,A,3,01,02,03,04,05,06,07,08,09,10,11,12,1.0,1.0,1.0*30
$GPRMC,073824.420,A,5226.154,N,01325.617,E,038.9,235.3,240418,000.0,W*7E
$GPGGA,073825.420,5226.146,N,01325.605,E,1,12,1.0,0.0,M,0.0,M,,*65
$GPGSA,A,3,01,02,03,04,05,06,07,08,09,10,11,12,1.0,1.0,1.0*30
$GPRMC,073825.420,A,5226.146,N,01325.605,E,038.9,235.3,240418,000.0,W*7F
$GPGGA,073826.420,5226.138,N,01325.593,E,1,12,1.0,0.0,M,0.0,M,,*63
$GPGSA,A,3,01,02,03,04,05,06,07,08,09,10,11,12,1.0,1.0,1.0*30
$GPRMC,073826.420,A,5226.138,N,01325.593,E,038.9,235.3,240418,000.0,W*79
$GPGGA,073827.420,5226.130,N,01325.582,E,1,12,1.0,0.0,M,0.0,M,,*6A
$GPGSA,A,3,01,02,03,04,05,06,07,08,09,10,11,12,1.0,1.0,1.0*30
$GPRMC,073827.420,A,5226.130,N,01325.582,E,038.9,235.3,240418,000.0,W*70
$GPGGA,073828.420,5226.122,N,01325.570,E,1,12,1.0,0.0,M,0.0,M,,*6B
$GPGSA,A,3,01,02,03,04,05,06,07,08,09,10,11,12,1.0,1.0,1.0*30
$GPRMC,073828.420,A,5226.122,N,01325.570,E,038.9,235.3,240418,000.0,W*71
$GPGGA,073829.420,5226.114,N,01325.558,E,1,12,1.0,0.0,M,0.0,M,,*65
$GPGSA,A,3,01,02,03,04,05,06,07,08,09,10,11,12,1.0,1.0,1.0*30
$GPRMC,073829.420,A,5226.114,N,01325.558,E,038.9,235.3,240418,000.0,W*7F
$GPGGA,073830.420,5226.106,N,01325.546,E,1,12,1.0,0.0,M,0.0,M,,*61
$GPGSA,A,3,01,02,03,04,05,06,07,08,09,10,11,12,1.0,1.0,1.0*30
$GPRMC,073830.420,A,5226.106,N,01325.546,E,038.9,235.3,240418,000.0,W*7B
$GPGGA,073831.420,5226.097,N,01325.535,E,1,12,1.0,0.0,M,0.0,M,,*6D
$GPGSA,A,3,01,02,03,04,05,06,07,08,09,10,11,12,1.0,1.0,1.0*30
$GPRMC,073831.420,A,5226.097,N,01325.535,E,038.9,235.3,240418,000.0,W*77
$GPGGA,073832.420,5226.089,N,01325.523,E,1,12,1.0,0.0,M,0.0,M,,*66
$GPGSA,A,3,01,02,03,04,05,06,07,08,09,10,11,12,1.0,1.0,1.0*30
$GPRMC,073832.420,A,5226.089,N,01325.523,E,038.9,235.3,240418,000.0,W*7C
$GPGGA,073833.420,5226.081,N,01325.511,E,1,12,1.0,0.0,M,0.0,M,,*6E
$GPGSA,A,3,01,02,03,04,05,06,07,08,09,10,11,12,1.0,1.0,1.0*30
$GPRMC,073833.420,A,5226.081,N,01325.511,E,038.9,235.3,240418,000.0,W*74
$GPGGA,073834.420,5226.073,N,01325.500,E,1,12,1.0,0.0,M,0.0,M,,*64
$GPGSA,A,3,01,02,03,04,05,06,07,08,09,10,11,12,1.0,1.0,1.0*30
$GPRMC,073834.420,A,5226.073,N,01325.500,E,038.9,235.3,240418,000.0,W*7E
$GPGGA,073835.420,5226.065,N,01325.488,E,1,12,1.0,0.0,M,0.0,M,,*63
$GPGSA,A,3,01,02,03,04,05,06,07,08,09,10,11,12,1.0,1.0,1.0*30
$GPRMC,073835.420,A,5226.065,N,01325.488,E,038.9,235.3,240418,000.0,W*79
$GPGGA,073836.420,5226.057,N,01325.476,E,1,12,1.0,0.0,M,0.0,M,,*60
$GPGSA,A,3,01,02,03,04,05,06,07,08,09,10,11,12,1.0,1.0,1.0*30
$GPRMC,073836.420,A,5226.057,N,01325.476,E,038.9,235.3,240418,000.0,W*7A
$GPGGA,073837.420,5226.049,N,01325.464,E,1,12,1.0,0.0,M,0.0,M,,*6D
$GPGSA,A,3,01,02,03,04,05,06,07,08,09,10,11,12,1.0,1.0,1.0*30
$GPRMC,073837.420,A,5226.049,N,01325.464,E,038.9,235.3,240418,000.0,W*77
$GPGGA,073838.420,5226.041,N,01325.453,E,1,12,1.0,0.0,M,0.0,M,,*6E
$GPGSA,A,3,01,02,03,04,05,06,07,08,09,10,11,12,1.0,1.0,1.0*30
$GPRMC,073838.420,A,5226.041,N,01325.453,E,038.9,235.3,240418,000.0,W*74
$GPGGA,073839.420,5226.033,N,01325.441,E,1,12,1.0,0.0,M,0.0,M,,*69
$GPGSA,A,3,01,02,03,04,05,06,07,08,09,10,11,12,1.0,1.0,1.0*30
$GPRMC,073839.420,A,5226.033,N,01325.441,E,038.9,235.3,240418,000.0,W*73
$GPGGA,073840.420,5226.025,N,01325.429,E,1,12,1.0,0.0,M,0.0,M,,*6E
$GPGSA,A,3,01,02,03,04,05,06,07,08,09,10,11,12,1.0,1.0,1.0*30
$GPRMC,073840.420,A,5226.025,N,01325.429,E,038.9,235.3,240418,000.0,W*74
$GPGGA,073841.420,5226.017,N,01325.417,E,1,12,1.0,0.0,M,0.0,M,,*63
$GPGSA,A,3,01,02,03,04,05,06,07,08,09,10,11,12,1.0,1.0,1.0*30
$GPRMC,073841.420,A,5226.017,N,01325.417,E,038.9,235.3,240418,000.0,W*79
$GPGGA,073842.420,5226.009,N,01325.406,E,1,12,1.0,0.0,M,0.0,M,,*6F
$GPGSA,A,3,01,02,03,04,05,06,07,08,09,10,11,12,1.0,1.0,1.0*30
$GPRMC,073842.420,A,5226.009,N,01325.406,E,038.9,235.3,240418,000.0,W*75
$GPGGA,073843.420,5226.001,N,01325.394,E,1,12,1.0,0.0,M,0.0,M,,*6A
$GPGSA,A,3,01,02,03,04,05,06,07,08,09,10,11,12,1.0,1.0,1.0*30
$GPRMC,073843.420,A,5226.001,N,01325.394,E,038.9,235.3,240418,000.0,W*70
$GPGGA,073844.420,5225.992,N,01325.382,E,1,12,1.0,0.0,M,0.0,M,,*6A
$GPGSA,A,3,01,02,03,04,05,06,07,08,09,10,11,12,1.0,1.0,1.0*30
$GPRMC,073844.420,A,5225.992,N,01325.382,E,038.9,235.3,240418,000.0,W*70
$GPGGA,073845.420,5225.984,N,01325.370,E,1,12,1.0,0.0,M,0.0,M,,*61
$GPGSA,A,3,01,02,03,04,05,06,07,08,09,10,11,12,1.0,1.0,1.0*30
$GPRMC,073845.420,A,5225.984,N,01325.370,E,038.9,235.3,240418,000.0,W*7B
$GPGGA,073846.420,5225.976,N,01325.359,E,1,12,1.0,0.0,M,0.0,M,,*64
$GPGSA,A,3,01,02,03,04,05,06,07,08,09,10,11,12,1.0,1.0,1.0*30
$GPRMC,073846.420,A,5225.976,N,01325.359,E,038.9,235.3,240418,000.0,W*7E
$GPGGA,073847.420,5225.968,N,01325.347,E,1,12,1.0,0.0,M,0.0,M,,*65
$GPGSA,A,3,01,02,03,04,05,06,07,08,09,10,11,12,1.0,1.0,1.0*30
$GPRMC,073847.420,A,5225.968,N,01325.347,E,038.9,235.3,240418,000.0,W*7F
$GPGGA,073848.420,5225.960,N,01325.335,E,1,12,1.0,0.0,M,0.0,M,,*67
$GPGSA,A,3,01,02,03,04,05,06,07,08,09,10,11,12,1.0,1.0,1.0*30
$GPRMC,073848.420,A,5225.960,N,01325.335,E,038.9,235.3,240418,000.0,W*7D
$GPGGA,073849.420,5225.952,N,01325.324,E,1,12,1.0,0.0,M,0.0,M,,*67
$GPGSA,A,3,01,02,03,04,05,06,07,08,09,10,11,12,1.0,1.0,1.0*30
$GPRMC,073849.420,A,5225.952,N,01325.324,E,038.9,235.3,240418,000.0,W*7D
$GPGGA,073850.420,5225.944,N,01325.312,E,1,12,1.0,0.0,M,0.0,M,,*6D
$GPGSA,A,3,01,02,03,04,05,06,07,08,09,10,11,12,1.0,1.0,1.0*30
$GPRMC,073850.420,A,5225.944,N,01325.312,E,038.9,235.3,240418,000.0,W*77
$GPGGA,073851.420,5225.936,N,01325.300,E,1,12,1.0,0.0,M,0.0,M,,*6A
$GPGSA,A,3,01,02,03,04,05,06,07,08,09,10,11,12,1.0,1.0,1.0*30
$GPRMC,073851.420,A,5225.936,N,01325.300,E,038.9,235.3,240418,000.0,W*70
$GPGGA,073852.420,5225.928,N,01325.288,E,1,12,1.0,0.0,M,0.0,M,,*67
$GPGSA,A,3,01,02,03,04,05,06,07,08,09,10,11,12,1.0,1.0,1.0*30
$GPRMC,073852.420,A,5225.928,N,01325.288,E,038.9,235.3,240418,000.0,W*7D
$GPGGA,073853.420,5225.920,N,01325.277,E,1,12,1.0,0.0,M,0.0,M,,*6E
$GPGSA,A,3,01,02,03,04,05,06,07,08,09,10,11,12,1.0,1.0,1.0*30
$GPRMC,073853.420,A,5225.920,N,01325.277,E,038.9,235.3,240418,000.0,W*74
$GPGGA,073854.420,5225.912,N,01325.265,E,1,12,1.0,0.0,M,0.0,M,,*6B
$GPGSA,A,3,01,02,03,04,05,06,07,08,09,10,11,12,1.0,1.0,1.0*30
$GPRMC,073854.420,A,5225.912,N,01325.265,E,038.9,235.3,240418,000.0,W*71
$GPGGA,073855.420,5225.904,N,01325.253,E,1,12,1.0,0.0,M,0.0,M,,*68
$GPGSA,A,3,01,02,03,04,05,06,07,08,09,10,11,12,1.0,1.0,1.0*30
$GPRMC,073855.420,A,5225.904,N,01325.253,E,038.9,235.3,240418,000.0,W*72
$GPGGA,073856.420,5225.896,N,01325.241,E,1,12,1.0,0.0,M,0.0,M,,*62
$GPGSA,A,3,01,02,03,04,05,06,07,08,09,10,11,12,1.0,1.0,1.0*30
$GPRMC,073856.420,A,5225.896,N,01325.241,E,038.9,235.3,240418,000.0,W*78
$GPGGA,073857.420,5225.887,N,01325.230,E,1,12,1.0,0.0,M,0.0,M,,*65
$GPGSA,A,3,01,02,03,04,05,06,07,08,09,10,11,12,1.0,1.0,1.0*30
$GPRMC,073857.420,A,5225.887,N,01325.230,E,038.9,235.3,240418,000.0,W*7F
$GPGGA,073858.420,5225.879,N,01325.218,E,1,12,1.0,0.0,M,0.0,M,,*61
$GPGSA,A,3,01,02,03,04,05,06,07,08,09,10,11,12,1.0,1.0,1.0*30
$GPRMC,073858.420,A,5225.879,N,01325.218,E,038.9,235.3,240418,000.0,W*7B
$GPGGA,073859.420,5225.871,N,01325.206,E,1,12,1.0,0.0,M,0.0,M,,*67
$GPGSA,A,3,01,02,03,04,05,06,07,08,09,10,11,12,1.0,1.0,1.0*30
$GPRMC,073859.420,A,5225.871,N,01325.206,E,038.9,235.3,240418,000.0,W*7D
$GPGGA,073900.420,5225.863,N,01325.194,E,1,12,1.0,0.0,M,0.0,M,,*61
$GPGSA,A,3,01,02,03,04,05,06,07,08,09,10,11,12,1.0,1.0,1.0*30
$GPRMC,073900.420,A,5225.863,N,01325.194,E,038.9,235.3,240418,000.0,W*7B
$GPGGA,073901.420,5225.855,N,01325.183,E,1,12,1.0,0.0,M,0.0,M,,*63
$GPGSA,A,3,01,02,03,04,05,06,07,08,09,10,11,12,1.0,1.0,1.0*30
$GPRMC,073901.420,A,5225.855,N,01325.183,E,038.9,235.3,240418,000.0,W*79
$GPGGA,073902.420,5225.847,N,01325.171,E,1,12,1.0,0.0,M,0.0,M,,*6E
$GPGSA,A,3,01,02,03,04,05,06,07,08,09,10,11,12,1.0,1.0,1.0*30
$GPRMC,073902.420,A,5225.847,N,01325.171,E,038.9,235.3,240418,000.0,W*74
$GPGGA,073903.420,5225.839,N,01325.159,E,1,12,1.0,0.0,M,0.0,M,,*6C
$GPGSA,A,3,01,02,03,04,05,06,07,08,09,10,11,12,1.0,1.0,1.0*30
$GPRMC,073903.420,A,5225.839,N,01325.159,E,038.9,235.3,240418,000.0,W*76
$GPGGA,073904.420,5225.831,N,01325.148,E,1,12,1.0,0.0,M,0.0,M,,*63
$GPGSA,A,3,01,02,03,04,05,06,07,08,09,10,11,12,1.0,1.0,1.0*30
$GPRMC,073904.420,A,5225.831,N,01325.148,E,038.9,235.3,240418,000.0,W*79
$GPGGA,073905.420,5225.823,N,01325.136,E,1,12,1.0,0.0,M,0.0,M,,*68
$GPGSA,A,3,01,02,03,04,05,06,07,08,09,10,11,12,1.0,1.0,1.0*30
$GPRMC,073905.420,A,5225.823,N,01325.136,E,038.9,235.3,240418,000.0,W*72
$GPGGA,073906.420,5225.815,N,01325.124,E,1,12,1.0,0.0,M,0.0,M,,*6D
$GPGSA,A,3,01,02,03,04,05,06,07,08,09,10,11,12,1.0,1.0,1.0*30
$GPRMC,073906.420,A,5225.815,N,01325.124,E,038.9,235.3,240418,000.0,W*77
$GPGGA,073907.420,5225.807,N,01325.112,E,1,12,1.0,0.0,M,0.0,M,,*6A
$GPGSA,A,3,01,02,03,04,05,06,07,08,09,10,11,12,1.0,1.0,1.0*30
$GPRMC,073907.420,A,5225.807,N,01325.112,E,038.9,235.3,240418,000.0,W*70
$GPGGA,073908.420,5225.799,N,01325.101,E,1,12,1.0,0.0,M,0.0,M,,*6F
$GPGSA,A,3,01,02,03,04,05,06,07,08,09,10,11,12,1.0,1.0,1.0*30
$GPRMC,073908.420,A,5225.799,N,01325.101,E,038.9,235.3,240418,000.0,W*75
$GPGGA,073909.420,5225.791,N,01325.089,E,1,12,1.0,0.0,M,0.0,M,,*67
$GPGSA,A,3,01,02,03,04,05,06,07,08,09,10,11,12,1.0,1.0,1.0*30
$GPRMC,073909.420,A,5225.791,N,01325.089,E,038.9,235.3,240418,000.0,W*7D
$GPGGA,073910.420,5225.782,N,01325.077,E,1,12,1.0,0.0,M,0.0,M,,*6C
$GPGSA,A,3,01,02,03,04,05,06,07,08,09,10,11,12,1.0,1.0,1.0*30
$GPRMC,073910.420,A,5225.782,N,01325.077,E,038.9,235.3,240418,000.0,W*76
$GPGGA,073911.420,5225.774,N,01325.065,E,1,12,1.0,0.0,M,0.0,M,,*67
$GPGSA,A,3,01,02,03,04,05,06,07,08,09,10,11,12,1.0,1.0,1.0*30
$GPRMC,073911.420,A,5225.774,N,01325.065,E,038.9,235.3,240418,000.0,W*7D
$GPGGA,073912.420,5225.766,N,01325.054,E,1,12,1.0,0.0,M,0.0,M,,*65
$GPGSA,A,3,01,02,03,04,05,06,07,08,09,10,11,12,1.0,1.0,1.0*30
$GPRMC,073912.420,A,5225.766,N,01325.054,E,038.9,235.3,240418,000.0,W*7F
$GPGGA,073913.420,5225.758,N,01325.042,E,1,12,1.0,0.0,M,0.0,M,,*6E
$GPGSA,A,3,01,02,03,04,05,06,07,08,09,10,11,12,1.0,1.0,1.0*30
$GPRMC,073913.420,A,5225.758,N,01325.042,E,038.9,235.3,240418,000.0,W*74
$GPGGA,073914.420,5225.750,N,01325.030,E,1,12,1.0,0.0,M,0.0,M,,*64
$GPGSA,A,3,01,02,03,04,05,06,07,08,09,10,11,12,1.0,1.0,1.0*30
$GPRMC,073914.420,A,5225.750,N,01325.030,E,038.9,235.3,240418,000.0,W*7E
$GPGGA,073915.420,5225.742,N,01325.018,E,1,12,1.0,0.0,M,0.0,M,,*6C
$GPGSA,A,3,01,02,03,04,05,06,07,08,09,10,11,12,1.0,1.0,1.0*30
$GPRMC,073915.420,A,5225.742,N,01325.018,E,038.9,235.3,240418,000.0,W*76
$GPGGA,073916.420,5225.734,N,01325.007,E,1,12,1.0,0.0,M,0.0,M,,*60
$GPGSA,A,3,01,02,03,04,05,06,07,08,09,10,11,12,1.0,1.0,1.0*30
$GPRMC,073916.420,A,5225.734,N,01325.007,E,038.9,235.3,240418,000.0,W*7A
$GPGGA,073917.420,5225.726,N,01324.995,E,1,12,1.0,0.0,M,0.0,M,,*61
$GPGSA,A,3,01,02,03,04,05,06,07,08,09,10,11,12,1.0,1.0,1.0*30
$GPRMC,073917.420,A,5225.726,N,01324.995,E,038.9,235.3,240418,000.0,W*7B
$GPGGA,073918.420,5225.718,N,01324.983,E,1,12,1.0,0.0,M,0.0,M,,*64
$GPGSA,A,3,01,02,03,04,05,06,07,08,09,10,11,12,1.0,1.0,1.0*30
$GPRMC,073918.420,A,5225.718,N,01324.983,E,038.9,235.3,240418,000.0,W*7E
$GPGGA,073919.420,5225.710,N,01324.972,E,1,12,1.0,0.0,M,0.0,M,,*63
$GPGSA,A,3,01,02,03,04,05,06,07,08,09,10,11,12,1.0,1.0,1.0*30
$GPRMC,073919.420,A,5225.710,N,01324.972,E,038.9,235.3,240418,000.0,W*79
$GPGGA,073920.420,5225.702,N,01324.960,E,1,12,1.0,0.0,M,0.0,M,,*69
$GPGSA,A,3,01,02,03,04,05,06,07,08,09,10,11,12,1.0,1.0,1.0*30
$GPRMC,073920.420,A,5225.702,N,01324.960,E,038.9,235.3,240418,000.0,W*73
$GPGGA,073921.420,5225.694,N,01324.948,E,1,12,1.0,0.0,M,0.0,M,,*6C
$GPGSA,A,3,01,02,03,04,05,06,07,08,09,10,11,12,1.0,1.0,1.0*30
$GPRMC,073921.420,A,5225.694,N,01324.948,E,038.9,235.3,240418,000.0,W*76
$GPGGA,073922.420,5225.686,N,01324.936,E,1,12,1.0,0.0,M,0.0,M,,*65
$GPGSA,A,3,01,02,03,04,05,06,07,08,09,10,11,12,1.0,1.0,1.0*30
$GPRMC,073922.420,A,5225.686,N,01324.936,E,038.9,235.3,240418,000.0,W*7F
$GPGGA,073923.420,5225.677,N,01324.925,E,1,12,1.0,0.0,M,0.0,M,,*68
$GPGSA,A,3,01,02,03,04,05,06,07,08,09,10,11,12,1.0,1.0,1.0*30
$GPRMC,073923.420,A,5225.677,N,01324.925,E,038.9,235.3,240418,000.0,W*72
$GPGGA,073924.420,5225.669,N,01324.913,E,1,12,1.0,0.0,M,0.0,M,,*65
$GPGSA,A,3,01,02,03,04,05,06,07,08,09,10,11,12,1.0,1.0,1.0*30
$GPRMC,073924.420,A,5225.669,N,01324.913,E,038.9,235.3,240418,000.0,W*7F
$GPGGA,073925.420,5225.661,N,01324.901,E,1,12,1.0,0.0,M,0.0,M,,*6F
$GPGSA,A,3,01,02,03,04,05,06,07,08,09,10,11,12,1.0,1.0,1.0*30
$GPRMC,073925.420,A,5225.661,N,01324.901,E,038.9,235.3,240418,000.0,W*75
$GPGGA,073926.420,5225.653,N,01324.889,E,1,12,1.0,0.0,M,0.0,M,,*6C
$GPGSA,A,3,01,02,03,04,05,06,07,08,09,10,11,12,1.0,1.0,1.0*30
$GPRMC,073926.420,A,5225.653,N,01324.889,E,038.9,235.3,240418,000.0,W*76
$GPGGA,073927.420,5225.645,N,01324.878,E,1,12,1.0,0.0,M,0.0,M,,*64
$GPGSA,A,3,01,02,03,04,05,06,07,08,09,10,11,12,1.0,1.0,1.0*30
$GPRMC,073927.420,A,5225.645,N,01324.878,E,038.9,235.3,240418,000.0,W*7E
$GPGGA,073928.420,5225.637,N,01324.866,E,1,12,1.0,0.0,M,0.0,M,,*61
$GPGSA,A,3,01,02,03,04,05,06,07,08,09,10,11,12,1.0,1.0,1.0*30
$GPRMC,073928.420,A,5225.637,N,01324.866,E,038.9,235.3,240418,000.0,W*7B
$GPGGA,073929.420,5225.629,N,01324.854,E,1,12,1.0,0.0,M,0.0,M,,*6E
$GPGSA,A,3,01,02,03,04,05,06,07,08,09,10,11,12,1.0,1.0,1.0*30
$GPRMC,073929.420,A,5225.629,N,01324.854,E,038.9,235.3,240418,000.0,W*74
$GPGGA,073930.420,5225.621,N,01324.843,E,1,12,1.0,0.0,M,0.0,M,,*68
$GPGSA,A,3,01,02,03,04,05,06,07,08,09,10,11,12,1.0,1.0,1.0*30
$GPRMC,073930.420,A,5225.621,N,01324.843,E,038.9,235.3,240418,000.0,W*72
$GPGGA,073931.420,5225.613,N,01324.831,E,1,12,1.0,0.0,M,0.0,M,,*6D
$GPGSA,A,3,01,02,03,04,05,06,07,08,09,10,11,12,1.0,1.0,1.0*30
$GPRMC,073931.420,A,5225.613,N,01324.831,E,038.9,235.3,240418,000.0,W*77
$GPGGA,073932.420,5225.605,N,01324.819,E,1,12,1.0,0.0,M,0.0,M,,*63
$GPGSA,A,3,01,02,03,04,05,06,07,08,09,10,11,12,1.0,1.0,1.0*30
$GPRMC,073932.420,A,5225.605,N,01324.819,E,038.9,235.3,240418,000.0,W*79
$GPGGA,073933.420,5225.597,N,01324.807,E,1,12,1.0,0.0,M,0.0,M,,*65
$GPGSA,A,3,01,02,03,04,05,06,07,08,09,10,11,12,1.0,1.0,1.0*30
$GPRMC,073933.420,A,5225.597,N,01324.807,E,038.9,235.3,240418,000.0,W*7F
$GPGGA,073934.420,5225.589,N,01324.796,E,1,12,1.0,0.0,M,0.0,M,,*6A
$GPGSA,A,3,01,02,03,04,05,06,07,08,09,10,11,12,1.0,1.0,1.0*30
$GPRMC,073934.420,A,5225.589,N,01324.796,E,038.9,235.3,240418,000.0,W*70
$GPGGA,073935.420,5225.580,N,01324.784,E,1,12,1.0,0.0,M,0.0,M,,*61
$GPGSA,A,3,01,02,03,04,05,06,07,08,09,10,11,12,1.0,1.0,1.0*30
$GPRMC,073935.420,A,5225.580,N,01324.784,E,038.9,235.3,240418,000.0,W*7B
$GPGGA,073936.420,5225.572,N,01324.772,E,1,12,1.0,0.0,M,0.0,M,,*66
$GPGSA,A,3,01,02,03,04,05,06,07,08,09,10,11,12,1.0,1.0,1.0*30
$GPRMC,073936.420,A,5225.572,N,01324.772,E,038.9,235.3,240418,000.0,W*7C
$GPGGA,073937.420,5225.564,N,01324.760,E,1,12,1.0,0.0,M,0.0,M,,*63
$GPGSA,A,3,01,02,03,04,05,06,07,08,09,10,11,12,1.0,1.0,1.0*30
$GPRMC,073937.420,A,5225.564,N,01324.760,E,038.9,235.3,240418,000.0,W*79
$GPGGA,073938.420,5225.556,N,01324.749,E,1,12,1.0,0.0,M,0.0,M,,*66
$GPGSA,A,3,01,02,03,04,05,06,07,08,09,10,11,12,1.0,1.0,1.0*30
$GPRMC,073938.420,A,5225.556,N,01324.749,E,038.9,235.3,240418,000.0,W*7C
$GPGGA,073939.420,5225.548,N,01324.737,E,1,12,1.0,0.0,M,0.0,M,,*61
$GPGSA,A,3,01,02,03,04,05,06,07,08,09,10,11,12,1.0,1.0,1.0*30
$GPRMC,073939.420,A,5225.548,N,01324.737,E,038.9,235.3,240418,000.0,W*7B
$GPGGA,073940.420,5225.540,N,01324.725,E,1,12,1.0,0.0,M,0.0,M,,*64
$GPGSA,A,3,01,02,03,04,05,06,07,08,09,10,11,12,1.0,1.0,1.0*30
$GPRMC,073940.420,A,5225.540,N,01324.725,E,038.9,235.3,240418,000.0,W*7E
$GPGGA,073941.420,5225.532,N,01324.713,E,1,12,1.0,0.0,M,0.0,M,,*65
$GPGSA,A,3,01,02,03,04,05,06,07,08,09,10,11,12,1.0,1.0,1.0*30
$GPRMC,073941.420,A,5225.532,N,01324.713,E,038.9,235.3,240418,000.0,W*7F
$GPGGA,073942.420,5225.524,N,01324.702,E,1,12,1.0,0.0,M,0.0,M,,*61
$GPGSA,A,3,01,02,03,04,05,06,07,08,09,10,11,12,1.0,1.0,1.0*30
$GPRMC,073942.420,A,5225.524,N,01324.702,E,038.9,235.3,240418,000.0,W*7B
$GPGGA,073943.420,5225.516,N,01324.690,E,1,12,1.0,0.0,M,0.0,M,,*6B
$GPGSA,A,3,01,02,03,04,05,06,07,08,09,10,11,12,1.0,1.0,1.0*30
